<?xml version="1.0" encoding="UTF-8"?>
<settings>
<servers><server url="http://speedtest.nornett.net/speedtest/upload.php" lat="69.9403" lon="23.3106" name="Alta" country="Norway" cc="NO" sponsor="Nornett AS" id="4961"  url2="http://speedtest2.nornett.net/speedtest/upload.php" host="speedtest.nornett.net:8080" />
<server url="http://speedo.eltele.no/speedtest/upload.php" lat="69.9403" lon="23.3106" name="Alta" country="Norway" cc="NO" sponsor="Eltele AS" id="3433"  url2="http://speedtest.eltele.no/speedtest/upload.php" />
<server url="http://speedtest1.norilsk.mts.ru/speedtest/upload.php" lat="69.3298" lon="88.2236" name="Norilsk" country="Russian Federation" cc="RU" sponsor="Mobile TeleSystems OJSC" id="3867"  url2="http://speedtest2.norilsk.mts.ru/speedtest/upload.php" />
<server url="http://speedtest.murmansk.u-disk.ru/speedtest/upload.php" lat="68.9543" lon="33.1076" name="Murmansk" country="Russian Federation" cc="RU" sponsor="Rostelecom" id="3522"  url2="http://speedtest2.murmansk.u-disk.ru/speedtest/upload.php" host="speedtest.murmansk.u-disk.ru:8080" />
<server url="http://ookla.trollfjord.no/speedtest/upload.php" lat="68.5656" lon="14.9042" name="Stokmarknes" country="Norway" cc="NO" sponsor="Trollfjord Broadband AS" id="4755"  url2="http://ookla01.trollfjord.no/speedtest/upload.php" host="ookla.trollfjord.no:8080" />
<server url="http://speedtest.naryan-mar.u-disk.ru/speedtest/upload.php" lat="67.6333" lon="53.0500" name="Naryan-Mar" country="Russian Federation" cc="RU" sponsor="Rostelecom" id="4280"  url2="http://speedtest2.naryan-mar.u-disk.ru/speedtest/upload.php" host="speedtest.naryan-mar.u-disk.ru:8080" />
<server url="http://speedtest-ap.murm.pro/speedtest/upload.php" lat="67.5667" lon="33.4000" name="Apatity" country="Russia" cc="RU" sponsor="Citylink Ltd" id="4980"  url2="http://speedtest-ap2.murm.pro/speedtest/upload.php" host="speedtest-ap.murm.pro:8080" />
<server url="http://speedtest.signal.no/speedtest/upload.php" lat="67.2833" lon="14.3833" name="Bodø" country="Norway" cc="NO" sponsor="Signal Broadband AS" id="3308"  url2="http://monster.signal.no/speedtest/upload.php" host="speedtest.signal.no:8080" />
<server url="http://speedtest.salehard.u-disk.ru/speedtest/upload.php" lat="66.5333" lon="66.6000" name="Salekhard" country="Russian Federation" cc="RU" sponsor="Rostelecom" id="2601"  url2="http://speedtest2.salehard.u-disk.ru/speedtest/upload.php" host="speedtest.salehard.u-disk.ru:8080" />
<server url="http://speedtest.new-urengoy.u-disk.ru/speedtest/upload.php" lat="66.0833" lon="76.6833" name="Novy Urengoy" country="Russian Federation" cc="RU" sponsor="Rostelecom" id="3484"  url2="http://speedtest2.new-urengoy.u-disk.ru/speedtest/upload.php" host="speedtest.new-urengoy.u-disk.ru:8080" />
<server url="http://speed.smartnet.is/speedtest/upload.php" lat="66.0751" lon="-23.1212" name="Isafjordur" country="Iceland" cc="IS" sponsor="Snerpa" id="3644"  url2="http://speed2.smartnet.is/speedtest/upload.php" host="speed.smartnet.is:8080" />
<server url="http://test.usinsknet.ru/speedtest/upload.php" lat="66.0000" lon="57.5333" name="Usinsk" country="Russian Federation" cc="RU" sponsor="Swift Telecom" id="3693"  host="test.usinsknet.ru:8080" />
<server url="http://sp1.nadym.tv/speedtest/upload.php" lat="65.5333" lon="72.5167" name="Nadym" country="Russia" cc="RU" sponsor="VKS-Internet" id="4856"  url2="http://sp2.nadym.tv/speedtest/upload.php" host="sp1.nadym.tv:8080" />
<server url="http://st.home-nadym.ru/speedtest/upload.php" lat="65.5333" lon="72.5167" name="Nadym" country="Russian Federation" cc="RU" sponsor="interService" id="3106"  url2="http://home-nadym.ru/speedtest/speedtest/upload.php" host="st.home-nadym.ru:8080" />
<server url="http://speedtest.netplaza.fi/speedtest/upload.php" lat="65.0167" lon="25.4667" name="Oulu" country="Finland" cc="FI" sponsor="Netplaza Oy" id="2138"  url2="http://speedtest2.netplaza.fi/speedtest/upload.php" />
<server url="http://speedtest.alaska.edu/speedtest/upload.php" lat="64.8378" lon="-147.7164" name="Fairbanks, AK" country="United States" cc="US" sponsor="University of Alaska" id="3191"  url2="http://speedtest2.alaska.edu/speedtest/upload.php" />
<server url="http://speedtest.sevsk.29-region.ru/speedtest/upload.php" lat="64.5681" lon="39.8317" name="Severodvinsk" country="Russian Federation" cc="RU" sponsor="MTS" id="2146"  url2="http://speedtest1.sevsk.29-region.ru/speedtest/upload.php" />
<server url="http://speedtest.arhangelsk.u-disk.ru/speedtest/upload.php" lat="64.5333" lon="40.5333" name="Arkhangelsk" country="Russian Federation" cc="RU" sponsor="Rostelecom" id="2597"  url2="http://speedtest2.arhangelsk.u-disk.ru/speedtest/upload.php" host="speedtest.arhangelsk.u-disk.ru:8080" />
<server url="http://spdtest-1.kaisanet.fi/speedtest/speedtest/upload.php" lat="64.2250" lon="27.7333" name="Kajaani" country="Finland" cc="FI" sponsor="Kaisanet Oy" id="4565"  url2="http://spdtest-2.kaisanet.fi/speedtest/speedtest/upload.php" host="spdtest-1.kaisanet.fi:8080" />
<server url="http://speedtest1.nova.is/speedtest/upload.aspx" lat="64.1333" lon="-21.9333" name="Reykjavik" country="Iceland" cc="IS" sponsor="Nova" id="3684"  host="speedtest1.nova.is:8080" />
<server url="http://speedtest.siminn.is/mini/speedtest/upload.php" lat="64.1333" lon="-21.9333" name="Reykjavik" country="Iceland" cc="IS" sponsor="Siminn" id="4818"  url2="http://speedtest2.siminn.is/mini/speedtest/upload.php" host="speedtest.siminn.is:8080" />
<server url="http://speedtest.c.is/speedtest/upload.php" lat="64.1333" lon="-21.9333" name="Reykjavík" country="Iceland" cc="IS" sponsor="Vodafone" id="4141"  url2="http://speedtest2.c.is/speedtest/upload.php" />
<server url="http://speed1.365net.is/speedtest/upload.php" lat="64.1333" lon="-21.9333" name="Reykjavík" country="Iceland" cc="IS" sponsor="365" id="4820"  url2="http://speed2.365net.is/speedtest/upload.php" host="speed1.365net.is:8080" />
<server url="http://speedtest.centrlan.net/speedtest/upload.php" lat="63.5667" lon="53.7000" name="Ukhta" country="Russian Federation" cc="RU" sponsor="Maxima - Centr.LAN" id="2130"  url2="http://195.22.104.12/speedtest/upload.php" />
<server url="http://speedtest.itsjefen.no/speedtest/upload.php" lat="63.4297" lon="10.3933" name="Trondheim" country="Norway" cc="NO" sponsor="ITsjefen AS" id="1252"  url2="http://speedtest.vdc.no/speedtest/upload.php" />
<server url="http://speedtest.noyabrsk.u-disk.ru/speedtest/upload.php" lat="63.2000" lon="75.4500" name="Noyabrsk" country="Russian Federation" cc="RU" sponsor="Rostelecom" id="4281"  url2="http://speedtest2.noyabrsk.u-disk.ru/speedtest/upload.php" host="speedtest.noyabrsk.u-disk.ru:8080" />
<server url="http://speed.global-x.ru/speedtest/upload.php" lat="63.2000" lon="75.4500" name="Noyabrsk" country="Russian Federation" cc="RU" sponsor="Sever-Svyaz" id="2017"  url2="http://speedtest.global-x.ru/speedtest/upload.php" />
<server url="http://speedtest01.sucom.no/speedtest/upload.php" lat="62.6128" lon="8.6342" name="Sunndalsora" country="Norway" cc="NO" sponsor="SuCom AS" id="4197"  url2="http://speedtest02.sucom.no/speedtest/upload.php" />
<server url="http://speed2.stayon.no/speedtest/upload.php" lat="62.4778" lon="6.1903" name="Alesund" country="Norway" cc="NO" sponsor="StayOn" id="4039"  url2="http://speed3.stayon.no/speedtest/upload.php" />
<server url="http://yk-speedtest01.ssimicro.com/speedtest/upload.php" lat="62.4422" lon="-114.3975" name="Yellowknife, NT" country="Canada" cc="CA" sponsor="SSI Micro" id="1843"  url2="http://yk-speedtest02.ssimicro.com/speedtest/upload.php" host="yk-speedtest01.ssimicro.com:8080" />
<server url="http://speedtest.seltimil.com/speedtest/upload.php" lat="62.2333" lon="25.7333" name="Jyvaskyla" country="Finland" cc="FI" sponsor="Seltimil Oy" id="3038"  url2="http://speedtest.seltimil.net/speedtest/upload.php" host="speedtest.seltimil.com:8080" />
<server url="http://speedtest.nyagan.net/speedtest/upload.php" lat="62.1333" lon="65.3833" name="Nyagan" country="Russian Federation" cc="RU" sponsor="Nyagan" id="1809"  url2="http://testspeed.nyagan.net/speedtest/upload.php" host="speedtest.nyagan.net:8080" />
<server url="http://www.exp-net.ru/speedtest/speedtest/upload.php" lat="62.0417" lon="129.7465" name="Yakutsk" country="Russian Federation" cc="RU" sponsor="ООО Экспресс-Сеть" id="3541"  url2="http://www.exp-net.me/speedtest/speedtest/upload.php" />
<server url="http://speedtest.yakutsk.u-disk.ru/speedtest/upload.php" lat="62.0333" lon="129.7333" name="Yakutsk" country="Russia" cc="RU" sponsor="Rostelecom" id="4480"  url2="http://speedtest2.yakutsk.u-disk.ru/speedtest/upload.php" host="speedtest.yakutsk.u-disk.ru:8080" />
<server url="http://188.244.139.106/speedtest/upload.php" lat="62.0333" lon="129.7333" name="Yakutsk" country="Russian Federation" cc="RU" sponsor="CJSC Baikal TransTeleCom" id="4214"  url2="http://188.244.139.105/speedtest/upload.php" />
<server url="http://www.internet.fo/speedtest/speedtest/upload.php" lat="62.0000" lon="-6.7833" name="Torshavn" country="Faroe Islands" cc="FO" sponsor="Faroese Telecom" id="462"  url2="http://internet.fo/speedtest/speedtest/upload.php" />
<server url="http://speedtest.petrozavodsk.u-disk.ru/speedtest/upload.php" lat="61.7833" lon="34.3333" name="Petrozavodsk" country="Russian Federation" cc="RU" sponsor="Rostelecom" id="2621"  url2="http://speedtest2.petrozavodsk.u-disk.ru/speedtest/upload.php" host="speedtest.petrozavodsk.u-disk.ru:8080" />
<server url="http://speedtest-ptz.citylink-rk.ru/speedtest/upload.php" lat="61.7833" lon="34.3333" name="Petrozavodsk" country="Russian Federation" cc="RU" sponsor="CityLink Ltd" id="1712"  host="speedtest-ptz.citylink-rk.ru:8080" />
<server url="http://speedtest2.ttksever.ru/speedtest/upload.php" lat="61.6667" lon="50.8167" name="Syktyvkar" country="Russian Federation" cc="RU" sponsor="CJSC &quot;SeverTransTeleCom&quot;" id="3173"  url2="http://speedtest3.ttksever.ru/speedtest/upload.php" host="speedtest2.ttksever.ru:8080" />
<server url="http://speedtest.komi.u-disk.ru/speedtest/upload.php" lat="61.6667" lon="50.8167" name="Syktyvkar" country="Russian Federation" cc="RU" sponsor="Rostelecom" id="2622"  url2="http://speedtest2.komi.u-disk.ru/speedtest/upload.php" host="speedtest.komi.u-disk.ru:8080" />
<server url="http://speedtest.tamico.com/speedtest/upload.asp" lat="61.5000" lon="23.7667" name="Tampere" country="Finland" cc="FI" sponsor="Tamico Oy" id="1698"  url2="http://31.47.64.74/speedtest/upload.asp" host="speedtest.tamico.com:8080" />
<server url="http://speedtest.enivest.net/speedtest/upload.php" lat="61.4431" lon="5.9036" name="Forde" country="Norway" cc="NO" sponsor="Enivest AS" id="899"  url2="http://217.149.113.142/speedtest/upload.php" />
<server url="http://speedtest.mtaonline.net/speedtest/upload.asp" lat="61.3214" lon="-149.5678" name="Eagle River, AK" country="United States" cc="US" sponsor="MTA Communications" id="3571"  url2="http://speedtest1.mtaonline.net/speedtest/upload.asp" host="speedtest.mtaonline.net:8080" />
<server url="http://speedtest.sg.metro-set.ru/speedtest/upload.php" lat="61.2667" lon="73.4000" name="Surgut" country="Russian Federation" cc="RU" sponsor="METROSET" id="2313"  host="speedtest.sg.metro-set.ru:8080" />
<server url="http://speedtest.sfj.no/speedtest/upload.php" lat="61.2308" lon="6.7897" name="Leikanger" country="Norway" cc="NO" sponsor="Sogn og Fjordane" id="981"  url2="http://93.94.14.6/speedtest/upload.php" />
<server url="http://speedtest.anc.acsalaska.net/speedtest/upload.php" lat="61.2183" lon="-149.8991" name="Anchorage, AK" country="United States" cc="US" sponsor="Alaska Communications" id="980"  host="speedtest.anc.acsalaska.net:8080" />
<server url="http://speedtest.gci.net/speedtest/upload.php" lat="61.2183" lon="-149.8991" name="Anchorage, AK" country="United States" cc="US" sponsor="GCI" id="1555"  url2="http://209.165.131.125/speedtest/upload.php" host="speedtest.gci.net:8080" />
<server url="http://speedtest.cvinternet.net/speedtest/upload.php" lat="61.1308" lon="-146.3483" name="Valdez, AK" country="United States" cc="US" sponsor="Copper Valley Internet" id="1409"  url2="http://209.161.164.6/speedtest/upload.php" />
<server url="http://speedtest1.nefteyugansk.comstar-r.ru/speedtest/upload.php" lat="61.0833" lon="72.7000" name="Nefteyugansk" country="Russian Federation" cc="RU" sponsor="MTS" id="2062"  url2="http://speedtest2.nefteyugansk.comstar-r.ru/speedtest/upload.php" host="speedtest1.nefteyugansk.comstar-r.ru:8080" />
<server url="http://speedtest.e-yugansk.ru/speedtest/upload.php" lat="61.0833" lon="72.7000" name="Nefteyugansk" country="Russian Federation" cc="RU" sponsor="E-YUGANSK" id="3623"  url2="http://speedtest2.e-yugansk.ru/speedtest/upload.php" host="speedtest.e-yugansk.ru:8080" />
<server url="http://speedtest.aina.net/speedtest/upload.php" lat="61.0000" lon="24.4667" name="Hameenlinna" country="Finland" cc="FI" sponsor="AinaCom Oy" id="4113"  url2="http://hml-speedtest.aina.net/speedtest/upload.php" host="speedtest.aina.net:8080" />
<server url="http://speedtest.hmao.u-disk.ru/speedtest/upload.php" lat="61.0000" lon="69.0000" name="Khanty-Mansiysk" country="Russian Federation" cc="RU" sponsor="Rostelecom" id="3524"  url2="http://speedtest2.hmao.u-disk.ru/speedtest/upload.php" host="speedtest.hmao.u-disk.ru:8080" />
<server url="http://speedtest.pride-net.ru/speedtest/upload.php" lat="60.9333" lon="76.5333" name="Nizhnevartovsk" country="Russian Federation" cc="RU" sponsor="Pride" id="2799"  url2="http://speedtest.nv-net.ru/speedtest/upload.php" host="speedtest.pride-net.ru:8080" />
<server url="http://st0-nv.avantel.ru/speedtest/upload.php" lat="60.9333" lon="76.5333" name="Nizhnevartovsk" country="Russia" cc="RU" sponsor="JSC Avantel" id="4547"  url2="http://st1-nv.avantel.ru/speedtest/upload.php" host="st0-nv.avantel.ru:8080" />
<server url="http://speedtest3.sib.comstar-r.ru/speedtest/upload.php" lat="60.9333" lon="76.5333" name="Nizhnevartovsk" country="Russian Federation" cc="RU" sponsor="MTS" id="2063"  url2="http://speedtest4.sib.comstar-r.ru/speedtest/upload.php" />
<server url="http://speedtest1.laitilanpuhelin.fi/speedtest/upload.php" lat="60.8792" lon="21.6931" name="Laitila" country="Finnland" cc="FN" sponsor="Laitilan Puhelin Osk" id="3447"  url2="http://speedtest2.laitilanpuhelin.fi/speedtest/upload.php" host="speedtest1.laitilanpuhelin.fi:8080" />
<server url="http://wh-netspeed.nwtel.ca/speedtest/upload.php" lat="60.7167" lon="-135.0500" name="Whitehorse, YT" country="Canada" cc="CA" sponsor="Northwestel Inc." id="4400"  url2="http://wh2-netspeed.nwtel.ca/speedtest/upload.php" />
<server url="http://speedtest.dataoppdrag.no/speedtest/upload.php" lat="60.3894" lon="5.3300" name="Bergen" country="Norway" cc="NO" sponsor="DataOppdrag AS" id="2301"  url2="http://speedtest2.dataoppdrag.no/speedtest/upload.php" host="speedtest.dataoppdrag.no:8080" />
<server url="http://speedtest1.saunalahti.fi/speedtest/upload.php" lat="60.1708" lon="24.9375" name="Helsinki" country="Finland" cc="FI" sponsor="Elisa Oyj" id="4549"  url2="http://speedtest1-1.saunalahti.fi/speedtest/upload.php" host="speedtest1.saunalahti.fi:8080" />
<server url="http://speedtest1.s.dnaip.fi/mini/speedtest/upload.php" lat="60.1708" lon="24.9375" name="Helsinki" country="Finland" cc="FI" sponsor="DNA Oy" id="4427"  url2="http://speedtest2.s.dnaip.fi/mini/speedtest/upload.php" host="speedtest1.s.dnaip.fi:8080" />
<server url="http://speedtest.get.no/legacy/upload.aspx" lat="59.9494" lon="10.7564" name="Oslo" country="Norway" cc="NO" sponsor="Get AS" id="4843"  url2="http://speedtest2.get.no/legacy/upload.aspx" host="speedtest.get.no:8080" />
<server url="http://speedtest.hafslundtelekom.net/speedtest/upload.php" lat="59.9494" lon="10.7564" name="Oslo" country="Norway" cc="NO" sponsor="Kvantel" id="952"  url2="http://77.88.99.74/speedtest/upload.php" host="speedtest.hafslundtelekom.net:8080" />
<server url="http://speedtest.ign.as/speedtest/upload.php" lat="59.9494" lon="10.7564" name="Oslo" country="Norway" cc="NO" sponsor="Infragreen AS" id="4179"  url2="http://speedtest2.ign.as/speedtest/upload.php" host="speedtest.ign.as:8080" />
<server url="http://speed1.blix.com/speedtest/upload.php" lat="59.9494" lon="10.7564" name="Oslo" country="Norway" cc="NO" sponsor="Blix Solutions AS" id="3378"  url2="http://speed2.blix.com/speedtest/upload.php" host="speed1.blix.com:8080" />
<server url="http://speedtest1.telenor.net/mini/speedtest/upload.php" lat="59.9494" lon="10.7564" name="Oslo" country="Norway" cc="NO" sponsor="Telenor Norge AS" id="3672"  host="speedtest1.telenor.net:8080" />
<server url="http://speedtest.spb.gldn.net/speedtest/upload.php" lat="59.9333" lon="30.3333" name="Saint Petersburg" country="Russian Federation" cc="RU" sponsor="Vimpelcom ltd" id="4139"  url2="http://speedtest-net.eltel.net/speedtest/upload.php" host="speedtest.spb.gldn.net:8080" />
<server url="http://speedtest.stackdata.net/speedtest/upload.php" lat="59.9333" lon="30.3333" name="Saint Petersburg" country="Russia" cc="RU" sponsor="SDN" id="4781"  url2="http://speedtest.stackdata.ru/speedtest/upload.php" />
<server url="http://speedtest.spbmts.ru/speedtest/upload.php" lat="59.9333" lon="30.3333" name="Saint Petersburg" country="Russian Federation" cc="RU" sponsor="MTS OJSC" id="4247"  url2="http://217.66.145.40/speedtest/upload.php" host="speedtest.spbmts.ru:8080" />
<server url="http://speedtest.spb.ertelecom.ru/speedtest/upload.php" lat="59.9333" lon="30.3333" name="Saint Petersburg" country="Russian Federation" cc="RU" sponsor="DOM.RU" id="2690"  url2="http://st.spb.ertelecom.ru/speedtest/upload.php" host="speedtest.spb.ertelecom.ru:8080" />
<server url="http://speedtest.megafonnw.ru/upload.php" lat="59.9333" lon="30.3333" name="Saint Petersburg" country="Russian Federation" cc="RU" sponsor="OJSC MegaFon (North-West)" id="1634"  host="speedtest.megafonnw.ru:8080" />
<server url="http://speedtest.peterburg.u-disk.ru/speedtest/upload.php" lat="59.9333" lon="30.3333" name="Saint Petersburg" country="Russian Federation" cc="RU" sponsor="Rostelecom" id="2599"  url2="http://speedtest2.peterburg.u-disk.ru/speedtest/upload.php" host="speedtest.peterburg.u-disk.ru:8080" />
<server url="http://speed.bci-tele.com/speedtest/upload.php" lat="59.9333" lon="30.3333" name="Saint Petersburg" country="Russia" cc="RU" sponsor="ISP BCI Telecom" id="4810"  url2="http://speed2.bci-tele.com/speedtest/upload.php" host="speed.bci-tele.com:8080" />
<server url="http://speedtest.chtp.net/speedtest/upload.php" lat="59.9333" lon="30.3333" name="Saint Petersburg" country="Russian Federation" cc="RU" sponsor="Chaika- Telecom Peterburg LTD" id="2801"  url2="http://speedtest2.chtp.net/speedtest/upload.php" />
<server url="http://speedtest1.spb.dom.mts.ru/speedtest/upload.php" lat="59.9333" lon="30.3333" name="Saint Petersburg" country="Russian Federation" cc="RU" sponsor="MTS" id="1905"  url2="http://speedtest2.spb.dom.mts.ru/speedtest/upload.php" host="speedtest1.spb.dom.mts.ru:8080" />
<server url="http://speedtest.ptspb.net/speedtest/upload.php" lat="59.9333" lon="30.3333" name="Saint Petersburg" country="Russian Federation" cc="RU" sponsor="ITSP Prometey" id="4231"  url2="http://speedtest1.ptspb.net/speedtest/upload.php" />
<server url="http://speedtest.sbor.net/speedtest/upload.php" lat="59.8897" lon="29.0856" name="Sosnovy Bor" country="Russian Federation" cc="RU" sponsor="LLC &quot;InfoCentre&quot;" id="2686"  url2="http://speedtest1.sbor.net/speedtest/upload.php" host="speedtest.sbor.net:8080" />
<server url="http://sp1.webmax.su/speedtest/upload.php" lat="59.8833" lon="30.9865" name="Kirovsk" country="Russian Federation" cc="RU" sponsor="WebMAX ltd." id="2193"  url2="http://sp2.webmax.su/speedtest/upload.php" host="sp1.webmax.su:8080" />
<server url="http://speedtest.link-spb.ru/speedtest/upload.php" lat="59.8833" lon="30.9865" name="Kirovsk" country="Russian Federation" cc="RU" sponsor="Link" id="3866"  url2="http://speedtest2.link-spb.ru/speedtest/upload.php" />
<server url="http://www.lentel.ru/speedtest/speedtest/upload.php" lat="59.7667" lon="30.7833" name="Otradnoe" country="Russia" cc="RU" sponsor="Lentel" id="4752"  url2="http://lentel.ru/speedtest/speedtest/upload.php" host="www.lentel.ru:8080" />
<server url="http://speedtest.gatchina.ru/speedtest/upload.php" lat="59.5667" lon="30.1333" name="Gatchina" country="Russian Federation" cc="RU" sponsor="Gatchina-Online" id="2113"  url2="http://speedtest2.gatchina.ru/speedtest/upload.php" host="speedtest.gatchina.ru:8080" />
<server url="http://speedtest.magadan.u-disk.ru/speedtest/upload.php" lat="59.5500" lon="150.8000" name="Magadan" country="Russian Federation" cc="RU" sponsor="Rostelecom" id="3125"  url2="http://speedtest2.magadan.u-disk.ru/speedtest/upload.php" host="speedtest.magadan.u-disk.ru:8080" />
<server url="http://speedtest1.teknikbyran.com/sp/speedtest/upload.php" lat="59.4833" lon="18.3000" name="Akersberga" country="Sweden" cc="SE" sponsor="Teknikbyran i Sverige AB" id="4425"  url2="http://speedtest2.teknikbyran.com/sp/speedtest/upload.php" host="speedtest1.teknikbyran.com:8080" />
<server url="http://speedtest1.starman.ee/speedtest/upload.php" lat="59.4372" lon="24.7453" name="Tallinn" country="Estonia" cc="EE" sponsor="Starman AS" id="3979"  url2="http://speedtest2.starman.ee/speedtest/upload.php" host="speedtest1.starman.ee:8080" />
<server url="http://kiirustest.elion.ee/speedtest/upload.php" lat="59.4339" lon="24.7549" name="Tallinn" country="Estonia" cc="EE" sponsor="Elion Enterprises Limited" id="1322"  url2="http://194.126.108.76/speedtest/upload.php" host="kiirustest.elion.ee:8080" />
<server url="http://speed.fiber.ee/speedtest/upload.php" lat="59.4339" lon="24.7549" name="Tallinn" country="Estonia" cc="EE" sponsor="Compic OU" id="3207"  url2="http://speed2.fiber.ee/speedtest/upload.php" host="speed.fiber.ee:8080" />
<server url="http://sidur.tele2.ee/speedtest/upload.php" lat="59.4339" lon="24.7549" name="Tallinn" country="Estonia" cc="EE" sponsor="Tele2 Eesti" id="3606"  url2="http://pidur.tele2.ee/speedtest/upload.php" />
<server url="http://speedtest.elisa.ee/speedtest/upload.php" lat="59.4339" lon="24.7549" name="Tallinn" country="Estonia" cc="EE" sponsor="Elisa" id="2610"  url2="http://speedtest.manonet.ee/speedtest/upload.php" host="speedtest.elisa.ee:8080" />
<server url="http://kiirusetest.emt.ee/speedtest/upload.php" lat="59.4339" lon="24.7549" name="Tallinn" country="Estonia" cc="EE" sponsor="AS EMT" id="4034"  url2="http://kiirusetest1.emt.ee/speedtest/upload.php" host="kiirusetest.emt.ee:8080" />
<server url="http://sp1.king-online.ru/speedtest/upload.php" lat="59.3667" lon="28.6000" name="Kingisepp" country="Russia" cc="RU" sponsor="King-Online Ltd." id="4494"  url2="http://sp2.king-online.ru/speedtest/upload.php" host="sp1.king-online.ru:8080" />
<server url="http://speedtest.spacedump.net/speedtest/upload.php" lat="59.3294" lon="18.0686" name="Stockholm" country="Sweden" cc="SE" sponsor="SpaceDump IT AB" id="2229"  url2="http://speedtest2.spacedump.net/speedtest/upload.php" host="212.63.211.90:8080" />
<server url="http://kst5-speedtest-1.tele2.net/mini/speedtest/upload.php" lat="59.3294" lon="18.0686" name="Stockholm" country="Sweden" cc="SE" sponsor="Tele2" id="4458"  url2="http://kst5-speedtest-1b.tele2.net/mini/speedtest/upload.php" host="kst5-speedtest-1.tele2.net:8080" />
<server url="http://speedtest.tre.se/speedtest/upload.php" lat="59.3294" lon="18.0686" name="Stockholm" country="Sweden" cc="SE" sponsor="Hi3G Access AB" id="4533"  url2="http://speedtest2.tre.se/speedtest/upload.php" host="speedtest.tre.se:8080" />
<server url="http://speedtest.vologda.u-disk.ru/speedtest/upload.php" lat="59.2167" lon="39.9000" name="Vologda" country="Russian Federation" cc="RU" sponsor="Rostelecom" id="2596"  url2="http://speedtest2.vologda.u-disk.ru/speedtest/upload.php" host="speedtest.vologda.u-disk.ru:8080" />
<server url="http://speedtest1.vologda.comstar-r.ru/speedtest/upload.php" lat="59.2167" lon="39.9000" name="Vologda" country="Russian Federation" cc="RU" sponsor="MTS" id="1916"  host="speedtest1.vologda.comstar-r.ru:8080" />
<server url="http://speed.luglink.net/speedtest/upload.php" lat="58.7333" lon="29.8500" name="Luga" country="Russian Federation" cc="RU" sponsor="MAOUDOD" id="3445"  url2="http://speed2.luglink.net/speedtest/upload.php" />
<server url="http://speedtest.kirov.u-disk.ru/speedtest/upload.php" lat="58.6000" lon="49.6500" name="Kirov" country="Russian Federation" cc="RU" sponsor="Rostelecom" id="3508"  url2="http://speedtest2.kirov.u-disk.ru/speedtest/upload.php" host="speedtest.kirov.u-disk.ru:8080" />
<server url="http://speedtest.kirov.ertelecom.ru/speedtest/upload.php" lat="58.6000" lon="49.6500" name="Kirov" country="Russian Federation" cc="RU" sponsor="DOM.RU" id="2702"  url2="http://st.kirov.ertelecom.ru/speedtest/upload.php" host="speedtest.kirov.ertelecom.ru:8080" />
<server url="http://speedtest.vnov.comstar-r.ru/speedtest/upload.php" lat="58.5500" lon="31.2833" name="Velikiy Novgorod" country="Russian Federation" cc="RU" sponsor="MTS" id="1911"  url2="http://speedtest2.vnov.comstar-r.ru/speedtest/upload.php" host="speedtest.vnov.comstar-r.ru:8080" />
<server url="http://speedtest.kostroma.u-disk.ru/speedtest/upload.php" lat="58.5500" lon="43.6830" name="Kostroma" country="Russian Federation" cc="Ru" sponsor="Rostelecom" id="3261"  url2="http://speedtest2.kostroma.u-disk.ru/speedtest/upload.php" host="speedtest.kostroma.u-disk.ru:8080" />
<server url="http://speedtest.v.novgorod.u-disk.ru/speedtest/upload.php" lat="58.5333" lon="31.2667" name="Veliky Novgorod" country="Russian Federation" cc="RU" sponsor="Rostelecom" id="3540"  url2="http://speedtest2.v.novgorod.u-disk.ru/speedtest/upload.php" host="speedtest.v.novgorod.u-disk.ru:8080" />
<server url="http://speedtest.thesnowcloud.com/speedtest/upload.php" lat="58.3833" lon="-134.1833" name="Juneau, AK" country="United States" cc="US" sponsor="TheSnowCloud" id="4841"  url2="http://speedtest2.thesnowcloud.com/speedtest/upload.php" host="speedtest.thesnowcloud.com:8080" />
<server url="http://speedtest.eenet.ee/speedtest/upload.php" lat="58.3833" lon="26.7167" name="Tartu" country="Estonia" cc="EE" sponsor="EENet" id="4678"  url2="http://iperf.eenet.ee/speedtest/upload.php" host="speedtest.eenet.ee:8080" />
<server url="http://speedtest1.sib.comstar-r.ru/speedtest/upload.php" lat="58.1953" lon="68.2581" name="Tobolsk" country="Russian Federation" cc="RU" sponsor="MTS" id="2060"  url2="http://speedtest2.sib.comstar-r.ru/speedtest/upload.php" host="speedtest1.sib.comstar-r.ru:8080" />
<server url="http://speedtest.perm.ertelecom.ru/speedtest/upload.php" lat="58.0000" lon="56.3167" name="Perm" country="Russian Federation" cc="RU" sponsor="DOM.RU" id="2660"  url2="http://st.perm.ertelecom.ru/speedtest/upload.php" host="speedtest.perm.ertelecom.ru:8080" />
<server url="http://speedtest1.psu.ru/speedtest/upload.php" lat="58.0000" lon="56.3167" name="Perm" country="Russian Federation" cc="RU" sponsor="Perm State University" id="3320"  url2="http://speedtest2.psu.ru/speedtest/upload.php" host="speedtest1.psu.ru:8080" />
<server url="http://ksilim.ru/mini/speedtest/upload.php" lat="58.0000" lon="102.6667" name="Ust-ilimsk" country="Russian Federation" cc="RU" sponsor="LLC &quot;KKS&quot;" id="3333"  url2="http://www.ksilim.ru/mini/speedtest/upload.php" />
<server url="http://www.pskovline.ru/speedtest/speedtest/upload.php" lat="57.8167" lon="28.3333" name="Pskov" country="Russian Federation" cc="RU" sponsor="Pskovline LTD" id="1210"  />
<server url="http://speedtest.pskov.u-disk.ru/speedtest/upload.php" lat="57.8167" lon="28.3333" name="Pskov" country="Russian Federation" cc="RU" sponsor="Rostelecom" id="3526"  url2="http://speedtest2.pskov.u-disk.ru/speedtest/upload.php" host="speedtest.pskov.u-disk.ru:8080" />
<server url="http://speedtest1.ttksever.ru/speedtest/upload.php" lat="57.6167" lon="39.8500" name="Yaroslavl" country="Russian Federation" cc="RU" sponsor="CJSC TransTeleCom" id="3088"  url2="http://speedtest.ttksever.ru/speedtest/upload.php" />
<server url="http://speedtest.yar.ertelecom.ru/speedtest/upload.php" lat="57.6167" lon="39.8500" name="Yaroslavl" country="Russian Federation" cc="RU" sponsor="JSC &quot;ER-Telecom Holding&quot;" id="2666"  url2="http://st.yar.ertelecom.ru/speedtest/upload.php" host="speedtest.yar.ertelecom.ru:8080" />
<server url="http://zavolga.net/mini/speedtest/upload.php" lat="57.6167" lon="39.8500" name="Yaroslavl" country="Russian Federation" cc="RU" sponsor="Zavolga.Net" id="4692"  url2="http://yar-ix.net/mini/speedtest/upload.php" host="zavolga.net:8080" />
<server url="http://st1.tensortelecom.ru/speedtest/upload.php" lat="57.6167" lon="39.8500" name="Yaroslavl" country="Russian Federation" cc="RU" sponsor="MTS" id="4689"  url2="http://st2.tensortelecom.ru/speedtest/upload.php" host="st1.tensortelecom.ru:8080" />
<server url="http://speedtest.yaroslavl.u-disk.ru/speedtest/upload.php" lat="57.6167" lon="39.8500" name="Yaroslavl" country="Russian Federation" cc="RU" sponsor="Rostelecom" id="2620"  url2="http://speedtest2.yaroslavl.u-disk.ru/speedtest/upload.php" host="speedtest.yaroslavl.u-disk.ru:8080" />
<server url="http://speedtest.livecomm.net/speedtest/upload.php" lat="57.6167" lon="39.8500" name="Yaroslavl" country="Russian Federation" cc="RU" sponsor="LiveComm" id="4674"  url2="http://speedtest.livecomm.ru/speedtest/upload.php" host="speedtest.livecomm.net:8080" />
<server url="http://st1.yar-tt.ru/speedtest/upload.php" lat="57.6167" lon="39.8500" name="Yaroslavl" country="Russian Federation" cc="RU" sponsor="CJSC YarTranzitTelecom" id="2772"  url2="http://st2.yar-tt.ru/speedtest/upload.php" host="st1.yar-tt.ru:8080" />
<server url="http://www.shlab.se/speed/speedtest/upload.php" lat="57.5333" lon="13.3500" name="Limmared" country="Sweden" cc="SE" sponsor="Satellithuset i limmared ab" id="3393"  url2="http://www.mikrotik.se/speed/speedtest/upload.php" host="www.shlab.se:8080" />
<server url="http://test1.ilink.lv/speedtest/upload.php" lat="57.3833" lon="21.5500" name="Ventspils" country="Latvia" cc="LV" sponsor="iLink" id="4173"  url2="http://test2.ilink.lv/speedtest/upload.php" host="test1.ilink.lv:8080" />
<server url="http://194.105.179.1/speedtest/upload.asp" lat="57.1526" lon="-2.1100" name="Aberdeen" country="Great Britain" cc="GB" sponsor="Internet For Business Ltd" id="1377"  url2="http://speedtest.ifb.net/speedtest/upload.asp" host="194.105.179.1:8080" />
<server url="http://speedtest.tmn.ertelecom.ru/speedtest/upload.php" lat="57.1500" lon="65.5333" name="Tyumen" country="Russian Federation" cc="RU" sponsor="DOM.RU" id="2697"  url2="http://st.tmn.ertelecom.ru/speedtest/upload.php" host="speedtest.tmn.ertelecom.ru:8080" />
<server url="http://speedtest.sibercat.ru/speedtest/upload.php" lat="57.1500" lon="65.5333" name="Tyumen" country="Russian Federation" cc="RU" sponsor="Sibercat" id="4613"  url2="http://watcher.sibercat.ru/speedtest/upload.php" host="speedtest.sibercat.ru:8080" />
<server url="http://speedtest.oborona.net/speedtest/upload.php" lat="57.1500" lon="65.5333" name="Tyumen" country="Russian Federation" cc="RU" sponsor="Delta Telesystems" id="988"  host="speedtest.oborona.net:8080" />
<server url="http://speedtest.ivanovo.u-disk.ru/speedtest/upload.php" lat="56.9967" lon="40.9819" name="Ivanovo" country="Russian Federation" cc="RU" sponsor="Rostelecom" id="3481"  url2="http://speedtest2.ivanovo.u-disk.ru/speedtest/upload.php" host="speedtest.ivanovo.u-disk.ru:8080" />
<server url="http://speedtest.ivanovo.u-disk.ru/speedtest/upload.php" lat="56.9967" lon="40.9819" name="Ivanovo" country="Russian Federation" cc="RU" sponsor="Rostelecom" id="4187"  url2="http://speedtest2.ivanovo.u-disk.ru/speedtest/upload.php" host="speedtest2.ivanovo.u-disk.ru:8080" />
<server url="http://peacedata.us/speedtest/speedtest/upload.php" lat="56.9496" lon="24.1040" name="Riga" country="Latvia" cc="LV" sponsor="SIA &quot;PeaceData&quot;" id="4467"  url2="http://telecomplus.lv/speedtest/speedtest/upload.php" />
<server url="http://speedtest1.srnet.lv/speedtest/upload.php" lat="56.9496" lon="24.1040" name="Riga" country="Latvia" cc="LV" sponsor="SIA Stream Networks" id="2151"  url2="http://speedtest2.srnet.lv/speedtest/upload.php" />
<server url="http://speedtest.lmt.lv/speedtest/upload.php" lat="56.9496" lon="24.1040" name="Riga" country="Latvia" cc="LV" sponsor="Latvijas Mobilais Telefons" id="2148"  url2="http://speedtest2.lmt.lv/speedtest/upload.php" host="speedtest.lmt.lv:8080" />
<server url="http://www.ping.lv/speedtest/upload.php" lat="56.9496" lon="24.1040" name="Riga" country="Latvia" cc="LV" sponsor="AS Balticom" id="1348"  url2="http://speedtest.ping.lv/speedtest/upload.php" host="ping.lv:8080" />
<server url="http://mini1.speedtest.lv/speedtest/upload.php" lat="56.9496" lon="24.1040" name="Riga" country="Latvia" cc="LV" sponsor="Lattelecom" id="1268"  url2="http://mini2.speedtest.lv/speedtest/upload.php" host="mini1.speedtest.lv:8080" />
<server url="http://speed.fastlnk.ru/speedtest/upload.php" lat="56.8667" lon="35.9167" name="Tver" country="Russian Federation" cc="RU" sponsor="Fast Link Ltd." id="1111"  host="speed.fastlnk.ru:8080" />
<server url="http://speedtest.tver.u-disk.ru/speedtest/upload.php" lat="56.8667" lon="35.9167" name="Tver" country="Russian Federation" cc="RU" sponsor="Rostelecom" id="3265"  url2="http://speedtest2.tver.u-disk.ru/speedtest/upload.php" host="speedtest.tver.u-disk.ru:8080" />
<server url="http://speedtest1.tver.comstar-r.ru/speedtest/speedtest/upload.php" lat="56.8667" lon="35.9167" name="Tver" country="Russian Federation" cc="RU" sponsor="MTS" id="1909"  url2="http://speedtest2.tver.comstar-r.ru/speedtest/speedtest/upload.php" host="speedtest1.tver.comstar-r.ru:8080" />
<server url="http://speedtest.tver.ertelecom.ru/speedtest/upload.php" lat="56.8667" lon="35.9167" name="Tver" country="Russian Federation" cc="RU" sponsor="DOM.RU" id="2732"  url2="http://st.tver.ertelecom.ru/speedtest/upload.php" host="speedtest.tver.ertelecom.ru:8080" />
<server url="http://speedtest.izhevsk.net/speedtest/upload.php" lat="56.8333" lon="53.1833" name="Izhevsk" country="Russian Federation" cc="RU" sponsor="Mark-ITT" id="1136"  url2="http://217.14.203.145/speedtest/upload.php" host="speedtest.izhevsk.net:8080" />
<server url="http://speedtest.izhevsk.ertelecom.ru/speedtest/upload.php" lat="56.8333" lon="53.1833" name="Izhevsk" country="Russian Federation" cc="RU" sponsor="DOM.RU" id="2704"  url2="http://st.izhevsk.ertelecom.ru/speedtest/upload.php" host="speedtest.izhevsk.ertelecom.ru:8080" />
<server url="http://speedtest.izhevsk.u-disk.ru/speedtest/upload.php" lat="56.8333" lon="53.1833" name="Izhevsk" country="Russian Federation" cc="RU" sponsor="Rostelecom" id="3516"  url2="http://speedtest2.izhevsk.u-disk.ru/speedtest/upload.php" host="speedtest.izhevsk.u-disk.ru:8080" />
<server url="http://speedtest.ekat.ertelecom.ru/speedtest/upload.php" lat="56.8333" lon="60.5833" name="Ekaterinburg" country="Russian Federation" cc="RU" sponsor="DOM.RU" id="2705"  url2="http://st.ekat.ertelecom.ru/speedtest/upload.php" />
<server url="http://speedtest1.motivtelecom.ru/speedtest/upload.php" lat="56.8333" lon="60.5833" name="Yekaterinburg" country="Russia" cc="RU" sponsor="TG &quot;Motiv&quot;" id="4558"  url2="http://speedtest2.motivtelecom.ru/speedtest/upload.php" host="speedtest1.motivtelecom.ru:8080" />
<server url="http://speedtest.telenet.ru/speedtest/speedtest/upload.php" lat="56.8333" lon="60.5833" name="Ekaterinburg" country="Russia" cc="RU" sponsor="Teleset-Service" id="4745"  url2="http://noc.telenet.ru/speedtest/speedtest/upload.php" host="speedtest.telenet.ru:8080" />
<server url="http://speedtest.ural.mts.ru/speedtest/upload.php" lat="56.8333" lon="60.5833" name="Ekaterinburg" country="Russian Federation" cc="RU" sponsor="OJSC MTS" id="4908"  url2="http://speedtest2.ural.mts.ru/speedtest/upload.php" host="speedtest.ural.mts.ru:8080" />
<server url="http://tarvalon.ural.net/speedtest/upload.php" lat="56.8333" lon="60.5833" name="Ekaterinburg" country="Russian Federation" cc="RU" sponsor="Ural WES" id="1930"  url2="http://195.64.192.47/speedtest/upload.php" host="tarvalon.ural.net:8080" />
<server url="http://speedtest.ekat.u-disk.ru/speedtest/upload.php" lat="56.8333" lon="60.5833" name="Ekaterinburg" country="Russian Federation" cc="RU" sponsor="Rostelecom" id="2602"  host="speedtest.ekat.u-disk.ru:8080" />
<server url="http://st1.dubna.ru/speedtest/upload.php" lat="56.7333" lon="37.1667" name="Dubna" country="Russian Federation" cc="RU" sponsor="Contact Company Ltd." id="2786"  url2="http://st2.dubna.ru/speedtest/upload.php" />
<server url="http://speedtest.neryungri.ru/speedtest/upload.php" lat="56.6733" lon="124.7142" name="Neryungri" country="Russia" cc="RU" sponsor="CJSC Baikal TransTeleCom" id="4542"  url2="http://speedtest2.neryungri.ru/speedtest/upload.php" host="speedtest.neryungri.ru:8080" />
<server url="http://speedtest.yola.ertelecom.ru/speedtest/upload.php" lat="56.6333" lon="47.8667" name="Yoshkar-ola" country="Russian Federation" cc="RU" sponsor="DOM.RU" id="2662"  url2="http://st.yola.ertelecom.ru/speedtest/upload.php" />
<server url="http://speedtest.yola.u-disk.ru/speedtest/upload.php" lat="56.6333" lon="47.8667" name="Yoshkar-ola" country="Russian Federation" cc="RU" sponsor="Rostelecom" id="3511"  url2="http://speedtest2.yola.u-disk.ru/speedtest/upload.php" host="speedtest.yola.u-disk.ru:8080" />
<server url="http://test.starnet.lv/speedtest/upload.php" lat="56.5127" lon="27.3427" name="Rezekne" country="Latvia" cc="LV" sponsor="Starnet SIA" id="4451"  url2="http://ping.starnet.lv/speedtest/upload.php" host="test.starnet.lv:8080" />
<server url="http://ext.speedtest.nts.su/speedtest/upload.php" lat="56.5000" lon="84.9700" name="Tomsk" country="Russian Federation" cc="RU" sponsor="NEW TELESYSTEMS" id="3041"  url2="http://ext2.speedtest.nts.su/speedtest/upload.php" />
<server url="http://speed-tmk.myttk.ru/speedtest/upload.php" lat="56.5000" lon="84.9700" name="Tomsk" country="Russian Federation" cc="RU" sponsor="JSC Zap-Sib TransTeleCom" id="1829"  host="speed-tmk.myttk.ru:8080" />
<server url="http://speedtest.tomsk.ertelecom.ru/speedtest/upload.php" lat="56.5000" lon="84.9700" name="Tomsk" country="Russian Federation" cc="RU" sponsor="DOM.RU" id="2943"  url2="http://st.tomsk.ertelecom.ru/speedtest/upload.php" host="speedtest.tomsk.ertelecom.ru:8080" />
<server url="http://speedtest.tomtel.ru/speedtest/upload.php" lat="56.5000" lon="84.9700" name="Tomsk" country="Russian Federation" cc="RU" sponsor="Tomtel" id="3838"  />
<server url="http://st.lanonline.ru/speedtest/upload.php" lat="56.4500" lon="60.1833" name="Polevskoy" country="Russian Federation" cc="RU" sponsor="Radiotehnika LLC" id="2994"  url2="http://st.rti66.ru/speedtest/upload.php" />
<server url="http://speedtest-kmn-eine.is74.ru/speedtest/upload.php" lat="56.4000" lon="61.9333" name="Kamensk-Uralsky" country="Russia" cc="RU" sponsor="JSC Intersvyaz" id="4829"  url2="http://speedtest-kmn-zwei.is74.ru/speedtest/upload.php" host="speedtest-kmn-eine.is74.ru:8080" />
<server url="http://st.trytek.ru/speedtest/upload.php" lat="56.3916" lon="38.7138" name="Alexandrov" country="Russian Federation" cc="RU" sponsor="Trytek Ltd." id="1577"  host="st.trytek.ru:8080" />
<server url="http://speedtest.kovrov.net/speedtest/upload.php" lat="56.3667" lon="41.3333" name="Kovrov" country="Russian Federation" cc="RU" sponsor="KovrovTelecom Ltd." id="2117"  url2="http://speedtest2.kovrov.net/speedtest/upload.php" />
<server url="http://speedtest1.itnet33.ru/speedtest/upload.php" lat="56.3667" lon="41.3333" name="Kovrov" country="Russian Federation" cc="RU" sponsor="ITNet33" id="2642"  url2="http://speedtest2.itnet33.ru/speedtest/upload.php" />
<server url="http://speedtest.mcomm.ru/speedtest/upload.php" lat="56.3500" lon="37.5667" name="Dmitrov" country="Russia" cc="RU" sponsor="CJSC Advantage Telecom" id="3918"  url2="http://speedtest2.mcomm.ru/speedtest/upload.php" host="speedtest.mcomm.ru:8080" />
<server url="http://speedtest.nnov.u-disk.ru/speedtest/upload.php" lat="56.3264" lon="44.0078" name="Nizhny Novgorod" country="Russian Federation" cc="RU" sponsor="Rostelecom" id="2563"  url2="http://speedtest2.nnov.u-disk.ru/speedtest/upload.php" host="speedtest.nnov.u-disk.ru:8080" />
<server url="http://speedtest.nn.ertelecom.ru/speedtest/upload.php" lat="56.3264" lon="44.0078" name="Nizhny Novgorod" country="Russian Federation" cc="RU" sponsor="DOM.RU" id="2698"  url2="http://st.nn.ertelecom.ru/speedtest/upload.php" host="speedtest.nn.ertelecom.ru:8080" />
<server url="http://speedtest.nnov.mts.ru/speedtest/upload.php" lat="56.3264" lon="44.0078" name="Nizhny Novgorod" country="Russia" cc="RU" sponsor="MTS" id="4503"  url2="http://213.87.70.45/speedtest/upload.php" host="speedtest.nnov.mts.ru:8080" />
<server url="http://speedtest.pif-paf.ru/speedtest/upload.php" lat="56.3264" lon="44.0078" name="Nizhny Novgorod" country="Russian Federation" cc="RU" sponsor="Comstar-r" id="3170"  url2="http://speedtest1.pif-paf.ru/speedtest/upload.php" host="speedtest.pif-paf.ru:8080" />
<server url="http://dzrspeedtest.nnov.comstar-r.ru/speedtest/upload.asp" lat="56.2333" lon="43.4500" name="Dzerzhinsk" country="Russian Federation" cc="RU" sponsor="MTS" id="2147"  url2="http://dzrspeedtest1.nnov.comstar-r.ru/speedtest/upload.asp" host="dzrspeedtest.nnov.comstar-r.ru:8080" />
<server url="http://80.82.172.161/speedtest/upload.php" lat="56.1666" lon="38.8667" name="Kirzhach" country="Russian Federation" cc="RU" sponsor="Kirzhach Telecom" id="4960"  host="80.82.172.161:8080" />
<server url="http://speedtest.lejetlan.dk/speedtest/upload.php" lat="56.1582" lon="10.2101" name="Aarhus" country="Denmark" cc="DK" sponsor="Lej-et-LAN" id="3443"  url2="http://195.189.131.14/speedtest/upload.php" />
<server url="http://st1.sv-tel.ru/speedtest/upload.php" lat="56.1500" lon="44.1833" name="Kstovo" country="Russian Federation" cc="RU" sponsor="OOO Svyazist" id="4154"  url2="http://st2.sv-tel.ru/speedtest/upload.php" />
<server url="http://speedtest1.dobroe.ru/speedtest/upload.php" lat="56.1333" lon="40.4167" name="Vladimir" country="Russian Federation" cc="RU" sponsor="MTS" id="1893"  url2="http://speedtest2.dobroe.ru/speedtest/upload.php" />
<server url="http://speedtest.vladimir.u-disk.ru/speedtest/upload.php" lat="56.1333" lon="40.4167" name="Vladimir" country="Russian Federation" cc="RU" sponsor="Rostelecom" id="3523"  url2="http://speedtest2.vladimir.u-disk.ru/speedtest/upload.php" host="speedtest.vladimir.u-disk.ru:8080" />
<server url="http://speedtest.info-link.ru/speedtest/upload.php" lat="56.1333" lon="47.2500" name="Cheboksary" country="Russian Federation" cc="RU" sponsor="Infolink" id="3555"  url2="http://speedtest2.info-link.ru/speedtest/upload.php" />
<server url="http://speedtest.cheb.ertelecom.ru/speedtest/upload.php" lat="56.1333" lon="47.2500" name="Cheboksary" country="Russian Federation" cc="RU" sponsor="DOM.RU" id="2731"  url2="http://st.cheb.ertelecom.ru/speedtest/upload.php" host="speedtest.cheb.ertelecom.ru:8080" />
<server url="http://speed.etherway.ru/speedtest/upload.php" lat="56.1333" lon="47.2500" name="Cheboksary" country="Russian Federation" cc="RU" sponsor="Etherway" id="1215"  host="speed.etherway.ru:8080" />
<server url="http://speedtest.shadrinsk.net/speedtest/upload.php" lat="56.1333" lon="63.6500" name="Shadrinsk" country="Russian Federation" cc="RU" sponsor="Courier Plus ISP" id="995"  url2="http://speedtest2.shadrinsk.net/speedtest/upload.php" host="speedtest.shadrinsk.net:8080" />
<server url="http://sanek508.net/mini/speedtest/upload.php" lat="56.1333" lon="93.3667" name="Sosnovoborsk" country="Russian Federation" cc="RU" sponsor="Sanek508.net" id="4407"  url2="http://alpha-t.org/mini/speedtest/upload.php" host="sanek508.net:8080" />
<server url="http://speedtest.cheboksary.u-disk.ru/speedtest/upload.php" lat="56.1103" lon="47.2511" name="Cheboksary" country="Russia" cc="RU" sponsor="Rostelecom" id="4481"  url2="http://speedtest2.cheboksary.u-disk.ru/speedtest/upload.php" host="speedtest.cheboksary.u-disk.ru:8080" />
<server url="http://ub.vega-int.ru/mini/speedtest/upload.php" lat="56.0833" lon="60.7333" name="Snezhinsk" country="Russia" cc="RU" sponsor="Vega-Service, LLC" id="4431"  url2="http://46.45.32.9/mini/speedtest/upload.php" host="ub.vega-int.ru:8080" />
<server url="http://speedtest01.waoo.dk/speedtest/upload.php" lat="56.0417" lon="9.9250" name="Skanderborg" country="Denmark" cc="DK" sponsor="Waoo!" id="4435"  url2="http://speedtest02.waoo.dk/speedtest/upload.php" host="speedtest01.waoo.dk:8080" />
<server url="http://80.76.104.98/speedtest/upload.php" lat="56.0200" lon="35.5809" name="Volokolamsk" country="Russian Federation" cc="RU" sponsor="Tdsplus" id="4605"  url2="http://80.76.104.102/speedtest/upload.php" host="80.76.104.98:8080" />
<server url="http://speedtest.krk.ru/speedtest/upload.php" lat="56.0026" lon="92.8853" name="Krasnoyarsk" country="Russia" cc="RU" sponsor="Orion telecom, Ltd." id="4729"  url2="http://speedtest.orionnet.ru/speedtest/upload.php" host="speedtest.krk.ru:8080" />
<server url="http://speed.cemka.org/speedtest/upload.php" lat="56.0026" lon="92.8853" name="Krasnoyarsk" country="Russian Federation" cc="RU" sponsor="cemka.org" id="4270"  url2="http://test.cemka.org/speedtest/upload.php" host="speed.cemka.org:8080" />
<server url="http://speedtest.krsk.ertelecom.ru/speedtest/upload.php" lat="56.0026" lon="92.8853" name="Krasnoyarsk" country="Russian Federation" cc="RU" sponsor="DOM.RU" id="2701"  url2="http://st.krsk.ertelecom.ru/speedtest/upload.php" host="speedtest.krsk.ertelecom.ru:8080" />
<server url="http://speedtest.krasnoyarsk.u-disk.ru/speedtest/upload.php" lat="56.0026" lon="92.8853" name="Кrasnoyarsk" country="Russian Federation" cc="RU" sponsor="Rostelecom" id="3545"  url2="http://speedtest2.krasnoyarsk.u-disk.ru/speedtest/upload.php" host="speedtest.krasnoyarsk.u-disk.ru:8080" />
<server url="http://m-12v.ru/speedtest/upload.php" lat="56.0000" lon="90.3833" name="Nazarovo" country="Russia" cc="RU" sponsor="h-nt.ru" id="4473"  />
<server url="http://sgyl-speedtest-1.server.virginmedia.net/speedtest/upload.php" lat="55.9521" lon="-3.2015" name="Edinburgh" country="Great Britain" cc="GB" sponsor="Virgin Media" id="3730"  host="sgyl-speedtest-1.server.virginmedia.net:8080" />
<server url="http://speedtest.telecom.mipt.ru/speedtest/upload.php" lat="55.9406" lon="37.5183" name="Dolgoprudny" country="Russian Federation" cc="RU" sponsor="MIPT-Telecom" id="874"  url2="http://speedtest2.telecom.mipt.ru/speedtest/upload.php" host="speedtest.telecom.mipt.ru:8080" />
<server url="http://speedtest.dolgoprudniy.u-disk.ru/speedtest/upload.php" lat="55.9406" lon="37.5183" name="Dolgoprudny" country="Russian Federation" cc="RU" sponsor="Rostelecom" id="3515"  url2="http://speedtest2.dolgoprudniy.u-disk.ru/speedtest/upload.php" host="speedtest.dolgoprudniy.u-disk.ru:8080" />
<server url="http://speedtest.east.ru/speedtest/upload.php" lat="55.9167" lon="37.7667" name="Mytishchi" country="Russia" cc="RU" sponsor="East Telecom Ltd" id="4952"  url2="http://speedtest2.east.ru/speedtest/upload.php" host="speedtest.east.ru:8080" />
<server url="http://speedtest.net-sky.ru/speedtest/upload.php" lat="55.9167" lon="37.8167" name="Korolev" country="Russia" cc="RU" sponsor="Korolev-Telekom" id="4879"  url2="http://speed.net-sky.ru/speedtest/upload.php" host="speedtest.net-sky.ru:8080" />
<server url="http://korolev.city-link.info/speedtest/upload.php" lat="55.9167" lon="37.8167" name="Korolev" country="Russian Federation" cc="RU" sponsor="CityLink" id="2228"  url2="http://speed.city-link.info/speedtest/upload.php" host="speed.city-link.info:8080" />
<server url="http://speedtest.vermont-it.ru/speedtest/upload.php" lat="55.9167" lon="37.8167" name="Korolev" country="Russia" cc="RU" sponsor="Vermont-IT" id="4548"  url2="http://speedtest.vernet.su/speedtest/upload.php" host="speedtest.vermont-it.ru:8080" />
<server url="http://speedtest.vshk.ru/speedtest/upload.php" lat="55.9167" lon="38.0000" name="Shchyolkovo" country="Russian Federation" cc="RU" sponsor="Ltd &quot;Korporativniy Partner&quot;" id="4294"  url2="http://speedtest1.vshk.ru/speedtest/upload.php" />
<server url="http://intek-m.ru/speedtest/upload.php" lat="55.9131" lon="37.7544" name="Mytishchi" country="Russian Federation" cc="RU" sponsor="Intek-M" id="2282"  url2="http://mytischi.net/speedtest/upload.php" />
<server url="http://speedtest1.opcom.ru/speedtest/upload.php" lat="55.9131" lon="37.7544" name="Mytishchi" country="Russian Federation" cc="RU" sponsor="Opticom" id="3612"  host="speedtest1.opcom.ru:8080" />
<server url="http://speedtest.dautkom.lv/speedtest/upload.php" lat="55.8800" lon="26.5100" name="Daugavpils" country="Latvia" cc="LV" sponsor="DauTKom TV" id="1399"  url2="http://62.205.205.2/speedtest/upload.php" host="speedtest.dautkom.lv:8080" />
<server url="http://renf-speedtest-1.server.virginmedia.net/speedtest/upload.php" lat="55.8700" lon="-4.2700" name="Glasgow" country="Great Britain" cc="GB" sponsor="Virgin Media" id="3696"  host="renf-speedtest-1.server.virginmedia.net:8080" />
<server url="http://speedtest.flex.ru/speedtest/upload.php" lat="55.8550" lon="38.4419" name="Noginsk" country="Russian Federation" cc="RU" sponsor="Ltd. &quot;Flex&quot;" id="3202"  url2="http://speedtest2.flex.ru/speedtest/upload.php" host="speedtest.flex.ru:8080" />
<server url="http://speedtest1.mksbalashihi.ru/speedtest/upload.php" lat="55.8167" lon="37.9667" name="Balashikha" country="Russian Federation" cc="RU" sponsor="MTS" id="2061"  url2="http://speedtest2.mksbalashihi.ru/speedtest/upload.php" />
<server url="http://speedtest1.balnet.ru/mini/speedtest/upload.php" lat="55.8167" lon="37.9667" name="Balashikha" country="Russian Federation" cc="RU" sponsor="ISP Balnet" id="2296"  host="speedtest1.balnet.ru:8080" />
<server url="http://speedtest.kzn.ertelecom.ru/speedtest/upload.php" lat="55.7951" lon="49.1089" name="Kazan" country="Russian Federation" cc="RU" sponsor="DOM.RU" id="2703"  url2="http://st.kzn.ertelecom.ru/speedtest/upload.php" host="speedtest.kzn.ertelecom.ru:8080" />
<server url="http://testspeed.tattelecom.ru/speedtest/upload.php" lat="55.7951" lon="49.1089" name="Kazan" country="Russian Federation" cc="RU" sponsor="Tattelecom" id="1325"  url2="http://speedtest.tattelecom.ru/speedtest/upload.php" />
<server url="http://kazan1.speedtest.corbina.net/speedtest/upload.php" lat="55.7951" lon="49.1089" name="Kazan" country="Russia" cc="RU" sponsor="Beeline" id="4963"  url2="http://kazan2.speedtest.corbina.net/speedtest/upload.php" host="kazan1.speedtest.corbina.net:8080" />
<server url="http://speedtest1.k-net.dk/speedtest/upload.php" lat="55.7700" lon="12.5000" name="Kongens Lyngby" country="Denmark" cc="DK" sponsor="K-Net" id="4532"  url2="http://speedtest2.k-net.dk/speedtest/upload.php" host="speedtest1.k-net.dk:8080" />
<server url="http://st.lgtel.ru/speedtest/upload.php" lat="55.7517" lon="37.6178" name="Moscow" country="Russian Federation" cc="RU" sponsor="Logitel Telecom" id="4399"  url2="http://st2.lgtel.ru/speedtest/upload.php" host="st.lgtel.ru:8080" />
<server url="http://iphouse.ru/s/speedtest/upload.php" lat="55.7517" lon="37.6178" name="Moscow" country="Russian Federation" cc="RU" sponsor="LLC &quot;SouthNets&quot;" id="4381"  url2="http://molokovo.net/s/speedtest/upload.php" />
<server url="http://speedtest1.dtln.ru/speedtest/upload.php" lat="55.7517" lon="37.6178" name="Moscow" country="Russia" cc="RU" sponsor="Dataline Ltd" id="4472"  />
<server url="http://speedtest.moscow.megafon.ru/speedtest/upload.php" lat="55.7517" lon="37.6178" name="Moscow" country="Russian Federation" cc="RU" sponsor="Megafon" id="1789"  url2="http://193.201.230.9/speedtest/upload.php" host="speedtest.moscow.megafon.ru:8080" />
<server url="http://librarian.comstar.ru/speedtest/speedtest/upload.php" lat="55.7517" lon="37.6178" name="Moscow" country="Russian Federation" cc="RU" sponsor="MTS" id="1907"  url2="http://mail0.comstar.ru/speedtest/speedtest/upload.php" />
<server url="http://speedtest.moscow.u-disk.ru/speedtest/speedtest/upload.php" lat="55.7517" lon="37.6178" name="Moscow" country="Russian Federation" cc="RU" sponsor="Rostelecom" id="3682"  url2="http://speedtest2.moscow.u-disk.ru/speedtest/speedtest/upload.php" />
<server url="http://speedtest.cln.net/speedtest/upload.php" lat="55.7517" lon="37.6178" name="Moscow" country="Russia" cc="RU" sponsor="CLN" id="4984"  url2="http://speedtest.completel.ru/speedtest/upload.php" host="speedtest.cln.net:8080" />
<server url="http://speedtest-1.rutube.ru/speedtest/upload.php" lat="55.7517" lon="37.6178" name="Moscow" country="Russian Federation" cc="RU" sponsor="RuTube" id="2322"  url2="http://speedtest-2.rutube.ru/speedtest/upload.php" />
<server url="http://msk-speedtest1.corbina.net/speedtest/upload.php" lat="55.7517" lon="37.6178" name="Moscow" country="Russia" cc="RU" sponsor="Beeline" id="4718"  url2="http://msk-speedtest2.corbina.net/speedtest/upload.php" host="msk-speedtest1.corbina.net:8080" />
<server url="http://speedtest.comendo.com/speedtest/upload.php" lat="55.7333" lon="12.4833" name="Gladsaxe" country="Denmark" cc="DK" sponsor="Comendo A/S" id="3514"  url2="http://speedtest2.comendo.com/speedtest/upload.php" host="speedtest.comendo.com:8080" />
<server url="http://speed-klaipeda.zebra.lt/speedtest/upload.php" lat="55.7000" lon="21.1333" name="Klaipeda" country="Lithuania" cc="LT" sponsor="TEO LT" id="1385"  url2="http://81.7.119.10/speedtest/upload.php" host="speed-klaipeda.zebra.lt:8080" />
<server url="http://stnet1.balticum.lt/speedtest/upload.php" lat="55.7000" lon="21.1333" name="Klaipeda" country="Lithuania" cc="LT" sponsor="Balticum TV" id="3556"  url2="http://stnet2.balticum.lt/speedtest/upload.php" host="stnet1.balticum.lt:8080" />
<server url="http://speedtest-ksht-eine.is74.ru/speedtest/upload.php" lat="55.7000" lon="60.5500" name="Kyshtym" country="Russia" cc="RU" sponsor="JSC Intersvyaz" id="4833"  url2="http://speedtest-ksht-zwei.is74.ru/speedtest/upload.php" host="speedtest-ksht-eine.is74.ru:8080" />
<server url="http://speedtest.chelny.ertelecom.ru/speedtest/upload.php" lat="55.6833" lon="52.3167" name="Naberezhnye Chelny" country="Russian Federation" cc="RU" sponsor="DOM.RU" id="2664"  url2="http://st.chelny.ertelecom.ru/speedtest/upload.php" host="speedtest.chelny.ertelecom.ru:8080" />
<server url="http://speedtest.zensystems.dk/speedtest/upload.php" lat="55.6750" lon="12.5687" name="Copenhagen" country="Denmark" cc="DK" sponsor="Zen Systems" id="1133"  url2="http://speedtest2.zensystems.dk/speedtest/upload.php" />
<server url="http://speedtest.3.dk/speedtest/upload.php" lat="55.6750" lon="12.5687" name="Copenhagen" country="Denmark" cc="DK" sponsor="Hi3G Denmark ApS" id="4787"  url2="http://speedtest2.3.dk/speedtest/upload.php" host="speedtest.3.dk:8080" />
<server url="http://speed.vltele.com/speedtest/upload.php" lat="55.6667" lon="37.2833" name="Odintsovo" country="Russian Federation" cc="RU" sponsor="VL-Telecom Ltd" id="2074"  url2="http://speedtest.vltele.com/speedtest/upload.php" />
<server url="http://speedtest1.dansknet.dk/speedtest/upload.php" lat="55.6500" lon="12.3000" name="Taastrup" country="Denmark" cc="DK" sponsor="Dansk Net A/S" id="3707"  host="speedtest1.dansknet.dk:8080" />
<server url="http://st1.proximanet.ru/speedtest/upload.php" lat="55.5667" lon="38.2167" name="Ramenskoye" country="Russia" cc="RU" sponsor="Proxima" id="4702"  url2="http://st1.wlc-net.ru/speedtest/upload.php" host="st1.proximanet.ru:8080" />
<server url="http://speedtest-trc-eine.is74.ru/speedtest/upload.php" lat="55.4914" lon="37.3092" name="Troitsk" country="Russia" cc="ru" sponsor="JSC Intersvyaz" id="4832"  url2="http://speedtest-trc-zwei.is74.ru/speedtest/upload.php" host="speedtest-trc-eine.is74.ru:8080" />
<server url="http://speedtest.kurgan.u-disk.ru/speedtest/upload.php" lat="55.4667" lon="65.3500" name="Kurgan" country="Russian Federation" cc="RU" sponsor="Rostelecom" id="4289"  url2="http://speedtest2.kurgan.u-disk.ru/speedtest/upload.php" host="speedtest.kurgan.u-disk.ru:8080" />
<server url="http://speedtest.infocentr.ru/speedtest/upload.php" lat="55.4667" lon="65.3500" name="Kurgan" country="Russian Federation" cc="RU" sponsor="MTS" id="4152"  url2="http://iperf.infocentr.ru/speedtest/upload.php" host="speedtest.infocentr.ru:8080" />
<server url="http://speedtest.infocentr.ru/speedtest/upload.php" lat="55.4667" lon="65.3500" name="Kurgan" country="Russian Federation" cc="RU" sponsor="LLC Infocentr" id="979"  url2="http://speedtest.icentr.net/speedtest/upload.php" host="speedtest.infocentr.ru:8080" />
<server url="http://speedtest.kurgan.ertelecom.ru/speedtest/upload.php" lat="55.4667" lon="65.3500" name="Kurgan" country="Russian Federation" cc="RU" sponsor="DOM.RU" id="2700"  url2="http://st.kurgan.ertelecom.ru/speedtest/upload.php" host="speedtest.kurgan.ertelecom.ru:8080" />
<server url="http://noc.btlab.pro/speedtest/speedtest/upload.php" lat="55.4667" lon="65.3500" name="Kurgan" country="Russian Federation" cc="RU" sponsor="KABiNET" id="3790"  host="noc.btlab.pro:8080" />
<server url="http://speedtest-kurgan-eine.is74.ru/speedtest/upload.php" lat="55.4667" lon="65.3500" name="Kurgan" country="Russia" cc="RU" sponsor="JSC Intersvyaz" id="4835"  url2="http://speedtest-kurgan-zwei.is74.ru/speedtest/upload.php" host="speedtest-kurgan-eine.is74.ru:8080" />
<server url="http://speedtest-kurgan-eine.is74.ru/speedtest/upload.php" lat="55.4667" lon="65.3500" name="Kurgan" country="Russian Federation" cc="RU" sponsor="JSC Intersvyaz" id="2724"  url2="http://speedtest-kurgan-zwei.is74.ru/speedtest/upload.php" host="speedtest-kurgan-eine.is74.ru:8080" />
<server url="http://st2.proximanet.ru/speedtest/upload.php" lat="55.4333" lon="38.2667" name="Bronnicy" country="Russia" cc="RU" sponsor="Proxima" id="4735"  url2="http://st2.wlc-net.ru/speedtest/upload.php" host="st2.proximanet.ru:8080" />
<server url="http://217.76.47.18/speedtest/upload.php" lat="55.4167" lon="37.5333" name="Podolsk" country="Russia" cc="ru" sponsor="ZAO Transformer" id="4901"  host="217.76.47.18:8080" />
<server url="http://speedtest.kollegienet.dk/speedtest/upload.php" lat="55.3935" lon="10.3949" name="Odense" country="Denmark" cc="DK" sponsor="Foreningen Kollegienet Odense" id="2920"  url2="http://speedtest2.kollegienet.dk/speedtest/upload.php" host="speedtest.kollegienet.dk:8080" />
<server url="http://62.140.239.147/mini/speedtest/upload.php" lat="55.3833" lon="39.0333" name="Yegoryevsk" country="Russian Federation" cc="RU" sponsor="RegionalNetworkCompany" id="3834"  host="62.140.239.147:8080" />
<server url="http://speed-kmo.myttk.ru/speedtest/upload.php" lat="55.3608" lon="86.0889" name="Kemerovo" country="Russian Federation" cc="RU" sponsor="JSC Zap-Sib TransTeleCom" id="1832"  host="speed-kmo.myttk.ru:8080" />
<server url="http://speedtest.goodline.info/speedtest/upload.php" lat="55.3608" lon="86.0889" name="Kemerovo" country="Russian Federation" cc="RU" sponsor="Good Line" id="1925"  url2="http://kemerovo-speedtest.goodline.info/speedtest/upload.php" host="speedtest.goodline.info:8080" />
<server url="http://94.229.228.34/speedtest/upload.php" lat="55.3608" lon="86.0889" name="Kemerovo" country="Russian Federation" cc="RU" sponsor="MTS Kemerovo" id="2632"  host="94.229.228.34:8080" />
<server url="http://test.my-yo.ru/speedtest/upload.php" lat="55.3608" lon="86.0889" name="Kemerovo" country="Russian Federation" cc="RU" sponsor="OJSC Rostelecom" id="4084"  url2="http://test1.my-yo.ru/speedtest/upload.php" host="test.my-yo.ru:8080" />
<server url="http://speedtest.kemerovo.u-disk.ru/speedtest/upload.php" lat="55.3608" lon="86.0889" name="Kemerovo" country="Russian Federation" cc="RU" sponsor="Rostelecom" id="4296"  url2="http://speedtest2.kemerovo.u-disk.ru/speedtest/upload.php" host="speedtest.kemerovo.u-disk.ru:8080" />
<server url="http://speedtest1.vyksa-net.ru/speedtest/upload.php" lat="55.3167" lon="42.1667" name="Vyksa" country="Russian Federation" cc="RU" sponsor="Telekom-MK" id="4264"  url2="http://speedtest2.vyksa-net.ru/speedtest/upload.php" host="speedtest1.vyksa-net.ru:8080" />
<server url="http://speedtest1.iwantwireless.ca/speedtest/upload.php" lat="55.2217" lon="-118.0203" name="DeBolt, AB" country="Canada" cc="CA" sponsor="Iwantwireless.ca Ltd" id="2534"  url2="http://speedtest2.iwantwireless.ca/speedtest/upload.php" />
<server url="http://speed1.vgarant.by/speedtest/upload.php" lat="55.1833" lon="30.1667" name="Vitebsk" country="Belarus" cc="BY" sponsor="JSC VOTTC &quot;Garant&quot;" id="4840"  url2="http://speed2.vgarant.by/speedtest/upload.php" host="speed1.vgarant.by:8080" />
<server url="http://speedtest-zlatoust-eine.is74.ru/speedtest/upload.php" lat="55.1833" lon="59.6333" name="Zlatoust" country="Russian Federation" cc="RU" sponsor="JSC Intersvyaz" id="2723"  url2="http://speedtest-zlatoust-zwei.is74.ru/speedtest/upload.php" host="speedtest-zlatoust-eine.is74.ru:8080" />
<server url="http://speed.zlattelecom.ru/speedtest/upload.php" lat="55.1833" lon="59.6333" name="Zlatoust" country="Russian Federation" cc="RU" sponsor="Zlat telecom LLC" id="3749"  host="speed.zlattelecom.ru:8080" />
<server url="http://speedtest-west.eastlink.ca/speedtest/upload.php" lat="55.1708" lon="-118.7947" name="Grande Prairie, AB" country="Canada" cc="CA" sponsor="Eastlink" id="2555"  url2="http://64.178.142.14/speedtest/upload.php" host="speedtest-west.eastlink.ca:8080" />
<server url="http://speedtest.chelyabinsk.u-disk.ru/speedtest/upload.php" lat="55.1667" lon="61.4000" name="Chelyabinsk" country="Russian Federation" cc="RU" sponsor="Rostelecom" id="3527"  url2="http://speedtest2.chelyabinsk.u-disk.ru/speedtest/upload.php" host="speedtest.chelyabinsk.u-disk.ru:8080" />
<server url="http://speedtest-eine.is74.ru/speedtest/upload.php" lat="55.1667" lon="61.4000" name="Chelyabinsk" country="Russian Federation" cc="RU" sponsor="JSC Intersvyaz" id="2557"  url2="http://speedtest-zwei.is74.ru/speedtest/upload.php" host="speedtest-eine.is74.ru:8080" />
<server url="http://speedtest.chel.ertelecom.ru/speedtest/upload.php" lat="55.1667" lon="61.4000" name="Chelyabinsk" country="Russian Federation" cc="RU" sponsor="DOM.RU" id="2717"  url2="http://st.chel.ertelecom.ru/speedtest/upload.php" host="speedtest.chel.ertelecom.ru:8080" />
<server url="http://st.vashetv.ru/speedtest/upload.php" lat="55.1667" lon="61.4000" name="Chelyabinsk" country="Russian Federation" cc="RU" sponsor="Uralunicom, CJSC" id="2010"  url2="http://speedtest.vashetv.ru/speedtest/upload.php" host="st.vashetv.ru:8080" />
<server url="http://speedtest.mks-chel.ru/speedtest/upload.php" lat="55.1667" lon="61.4000" name="Chelyabinsk" country="Russian Federation" cc="RU" sponsor="MTS" id="1906"  url2="http://speedtest2.mks-chel.ru/speedtest/upload.php" host="speedtest.mks-chel.ru:8080" />
<server url="http://chkv-speedtest.rialcom.ru/speedtest/upload.php" lat="55.1481" lon="37.4769" name="Chehov" country="Russian Federation" cc="RU" sponsor="CJSC RialCom" id="2208"  url2="http://speedtest01.rialcom.ru/speedtest/upload.php" />
<server url="http://speedtest-kopeysk-eine.is74.ru/speedtest/upload.php" lat="55.1167" lon="61.6500" name="Kopeysk" country="Russian Federation" cc="RU" sponsor="JSC Intersvyaz" id="2778"  url2="http://speedtest-kopeysk-zwei.is74.ru/speedtest/upload.php" host="speedtest-kopeysk-eine.is74.ru:8080" />
<server url="http://speedtest.ekran39.ru/speedtest/upload.php" lat="55.0833" lon="21.8833" name="Sovetsk" country="Russian Federation" cc="RU" sponsor="CJSC Ekran" id="2162"  url2="http://speedtest2.ekran39.ru/speedtest/upload.php" host="speedtest.ekran39.ru:8080" />
<server url="http://speedtest-miass-eine.is74.ru/speedtest/upload.php" lat="55.0500" lon="60.1000" name="Miass" country="Russian Federation" cc="RU" sponsor="JSC Intersvyaz" id="2722"  url2="http://speedtest-miass-zwei.is74.ru/speedtest/upload.php" host="speedtest-miass-eine.is74.ru:8080" />
<server url="http://speedtest.miass.multinex.ru/speedtest/upload.php" lat="55.0500" lon="60.1000" name="Miass" country="Russian Federation" cc="RU" sponsor="MTS" id="1867"  url2="http://speedtest2.miass.multinex.ru/speedtest/upload.php" host="speedtest.miass.multinex.ru:8080" />
<server url="http://speed.skat-satka.ru/speedtest/upload.php" lat="55.0425" lon="59.0400" name="Satka" country="Russia Federation" cc="RU" sponsor="SKAT Ltd." id="2793"  host="speed.skat-satka.ru:8080" />
<server url="http://speedtest.novosibirsk.u-disk.ru/speedtest/upload.php" lat="55.0000" lon="82.0000" name="Novosibirsk" country="Russian Federation" cc="RU" sponsor="Rostelecom" id="3296"  url2="http://speedtest2.novosibirsk.u-disk.ru/speedtest/upload.php" host="speedtest.novosibirsk.u-disk.ru:8080" />
<server url="http://speedtest.avantel.ru/speedtest/upload.php" lat="55.0000" lon="82.0000" name="Novosibirsk" country="Russian Federation" cc="RU" sponsor="AVANTEL" id="4046"  url2="http://st.avantel.ru/speedtest/upload.php" />
<server url="http://speedtest1.sib.mts.ru/speedtest/upload.php" lat="55.0000" lon="82.0000" name="Novosibirsk" country="Russia" cc="RU" sponsor="Mobile TeleSystems OJSC" id="3868"  url2="http://speedtest2.sib.mts.ru/speedtest/upload.php" />
<server url="http://speedtest.myttk.ru/speedtest/upload.php" lat="55.0000" lon="82.0000" name="Novosibirsk" country="Russian Federation" cc="RU" sponsor="JSC Zap-Sib TransTeleCom" id="1823"  url2="http://80.89.150.78/speedtest/upload.php" host="speedtest.myttk.ru:8080" />
<server url="http://speedtest.nsk.ertelecom.ru/speedtest/upload.php" lat="55.0000" lon="82.0000" name="Novosibirsk" country="Russian Federation" cc="RU" sponsor="DOM.RU" id="2696"  url2="http://st.nsk.ertelecom.ru/speedtest/upload.php" host="speedtest.nsk.ertelecom.ru:8080" />
<server url="http://st.siberia.net/speedtest/upload.php" lat="55.0000" lon="82.0000" name="Novosibirsk" country="Russian Federation" cc="RU" sponsor="Magistral Telecom CJSC" id="4639"  url2="http://speedtest.siberia.net/speedtest/upload.php" host="st.siberia.net:8080" />
<server url="http://www.nwewn.com/mini/speedtest/upload.php" lat="54.9958" lon="-7.3074" name="Derry" country="Northern Ireland" cc="GB" sponsor="North West Electronics" id="1144"  url2="http://78.155.250.130/mini/speedtest/upload.php" host="78.155.250.131:8080" />
<server url="http://speedtest.omsk.u-disk.ru/speedtest/upload.php" lat="54.9833" lon="73.3667" name="Omsk" country="Russian Federation" cc="RU" sponsor="Rostelecom" id="4282"  url2="http://speedtest2.omsk.u-disk.ru/speedtest/upload.php" host="speedtest.omsk.u-disk.ru:8080" />
<server url="http://speedtest.omsk.ertelecom.ru/speedtest/upload.php" lat="54.9833" lon="73.3667" name="Omsk" country="Russian Federation" cc="RU" sponsor="DOM.RU" id="2695"  url2="http://st.omsk.ertelecom.ru/speedtest/upload.php" host="speedtest.omsk.ertelecom.ru:8080" />
<server url="http://speed-omk.myttk.ru/speedtest/upload.php" lat="54.9833" lon="73.3667" name="Omsk" country="Russian Federation" cc="RU" sponsor="JSC Zap-Sib TransTeleCom" id="1830"  url2="http://80.89.158.50/speedtest/upload.php" host="speed-omk.myttk.ru:8080" />
<server url="http://speedtest.wildcard.net.uk/speedtest/upload.php" lat="54.9740" lon="-1.6132" name="Newcastle upon Tyne" country="Great Britain" cc="GB" sponsor="Wildcard Networks" id="4058"  url2="http://speedtest-2.wildcard.net.uk/speedtest/upload.php" host="speedtest.wildcard.net.uk:8080" />
<server url="http://speedtest.sefiber.dk/speedtest/upload.php" lat="54.9138" lon="9.7922" name="Sonderborg" country="Denmark" cc="DK" sponsor="SE" id="3628"  url2="http://speedtest2.sefiber.dk/speedtest/upload.php" host="speedtest.sefiber.dk:8080" />
<server url="http://speedtest.meganet.lt/speedtest/speedtest/upload.php" lat="54.9000" lon="23.9333" name="Kaunas" country="Lithuania" cc="LT" sponsor="DOKEDA" id="1050"  url2="http://88.222.0.7/speedtest/speedtest/upload.php" />
<server url="http://speed-kaunas.zebra.lt/speedtest/upload.php" lat="54.9000" lon="23.9333" name="Kaunas" country="Lithuania" cc="LT" sponsor="TEO LT, AB" id="1437"  host="speed-kaunas.zebra.lt:8080" />
<server url="http://speedtest.solwaycomms.com/speedtest/upload.php" lat="54.8962" lon="-2.9316" name="Carlisle" country="Great Britain" cc="GB" sponsor="Solway Communications Ltd" id="4145"  url2="http://speedtest1.solwaycomms.com/speedtest/upload.php" />
<server url="http://speedtest.kortv.ru/speedtest/upload.php" lat="54.8958" lon="61.3792" name="Korkino" country="Russia" cc="RU" sponsor="Korkino Cable TV Network" id="3791"  url2="http://speedtest2.kortv.ru/speedtest/upload.php" host="speedtest.kortv.ru:8080" />
<server url="http://speedtest-kor-eine.is74.ru/speedtest/upload.php" lat="54.8958" lon="61.3792" name="Korkino" country="Russia" cc="RU" sponsor="JSC Intersvyaz" id="4830"  url2="http://speedtest-kor-zwei.is74.ru/speedtest/upload.php" host="speedtest-kor-eine.is74.ru:8080" />
<server url="http://speedtest.stupino.su/speedtest/upload.php" lat="54.8942" lon="38.0841" name="Stupino" country="Russian Federation" cc="RU" sponsor="SKS Telecom" id="3210"  url2="http://st.stupino.su/speedtest/upload.php" />
<server url="http://esilnet.com/speedtest/speedtest/upload.php" lat="54.8833" lon="69.1667" name="Petropavlovsk" country="Kazakhstan" cc="KZ" sponsor="EsilNet" id="2991"  url2="http://esil-ktv.kz/speedtest/speedtest/upload.php" host="esilnet.com:8080" />
<server url="http://speedtest.smolensk.u-disk.ru/speedtest/upload.php" lat="54.7833" lon="32.0500" name="Smolensk" country="Russian Federation" cc="RU" sponsor="Rostelecom" id="3263"  url2="http://speedtest2.smolensk.u-disk.ru/speedtest/upload.php" host="speedtest.smolensk.u-disk.ru:8080" />
<server url="http://speedtest.smoltelecom.ru/speedtest/upload.php" lat="54.7833" lon="32.0500" name="Smolensk" country="Russia" cc="RU" sponsor="Smoltelecom Ltd." id="4902"  url2="http://ppcmetr.smoltelecom.ru/speedtest/upload.php" host="speedtest.smoltelecom.ru:8080" />
<server url="http://speedtest1.smolensk.comstar-r.ru/speedtest/upload.php" lat="54.7833" lon="32.0500" name="Smolensk" country="Russian Federation" cc="RU" sponsor="MTS" id="1891"  url2="http://speedtest2.smolensk.comstar-r.ru/speedtest/upload.php" />
<server url="http://speed.bashtel.ru/speedtest/upload.php" lat="54.7500" lon="55.9667" name="Ufa" country="Russian Federation" cc="RU" sponsor="Bashinformsvyaz" id="2753"  url2="http://83.174.193.213/speedtest/upload.php" host="speedtest.bashtel.ru:8080" />
<server url="http://v.ufanet.ru/speedtest/upload.php" lat="54.7500" lon="55.9667" name="Ufa" country="Russian Federation" cc="RU" sponsor="OJSC Ufanet" id="3238"  url2="http://speedtest.ufanet.ru/speedtest/upload.php" host="v.ufanet.ru:8080" />
<server url="http://speedtest.ufa.ertelecom.ru/speedtest/upload.php" lat="54.7500" lon="55.9667" name="Ufa" country="Russian Federation" cc="RU" sponsor="DOM.RU" id="2729"  url2="http://st.ufa.ertelecom.ru/speedtest/upload.php" host="speedtest.ufa.ertelecom.ru:8080" />
<server url="http://speedtest-emg-eine.is74.ru/speedtest/upload.php" lat="54.7500" lon="61.3000" name="Yemanzhelinsk" country="Russia" cc="RU" sponsor="JSC Intersvyaz" id="4831"  url2="http://speedtest-emg-eine.is74.ru/speedtest/upload.php" host="speedtest-emg-eine.is74.ru:8080" />
<server url="http://195.191.82.1/speedtest/upload.php" lat="54.7500" lon="61.3000" name="Yemanzhelinsk" country="Russia" cc="RU" sponsor="TelKom" id="3826"  />
<server url="http://speedtest.etype.ru/speedtest/upload.php" lat="54.7167" lon="20.5167" name="Kaliningrad" country="Russian Federation" cc="RU" sponsor="Etype" id="4090"  url2="http://speedtest2.etype.ru/speedtest/upload.php" host="speedtest.etype.ru:8080" />
<server url="http://bytecity.ru/speedtest/speedtest/upload.php" lat="54.7167" lon="20.5167" name="Kaliningrad" country="Russian Federation" cc="RU" sponsor="JSC WestBalt Telecom" id="4112"  url2="http://speedtest.wbt.ru/speedtest/upload.php" />
<server url="http://speedtest.kaliningrad.u-disk.ru/speedtest/upload.php" lat="54.7167" lon="20.5167" name="Kaliningrad" country="Russian Federation" cc="RU" sponsor="Rostelecom" id="2598"  url2="http://speedtest2.kaliningrad.u-disk.ru/speedtest/upload.php" host="speedtest.kaliningrad.u-disk.ru:8080" />
<server url="http://speedtest.tis-dialog.ru/speedtest/upload.php" lat="54.7167" lon="20.5167" name="Kaliningrad" country="Russian Federation" cc="RU" sponsor="Tis-Dialog" id="1352"  />
<server url="http://st1.extel-gsm.com/speedtest/upload.php" lat="54.7167" lon="20.5167" name="Kaliningrad" country="Russia" cc="RU" sponsor="JSC Vimpelcom" id="4730"  url2="http://st2.extel-gsm.com/speedtest/upload.php" host="st1.extel-gsm.com:8080" />
<server url="http://speedtest.skynet.lt/speedtest/upload.php" lat="54.6833" lon="25.2833" name="Vilnius" country="Lithuania" cc="LT" sponsor="Penki Kontinentai" id="1728"  url2="http://speedtest2.skynet.lt/speedtest/upload.php" host="speedtest.skynet.lt:8080" />
<server url="http://194.110.220.175/speedtest/upload.php" lat="54.6833" lon="25.2833" name="Vilnius" country="Lithuania" cc="LT" sponsor="Blue Bridge" id="3937"  url2="http://46.255.209.159/speedtest/upload.php" />
<server url="http://vln038-speedtest-1.tele2.net/mini/speedtest/upload.php" lat="54.6833" lon="25.2833" name="Vilnius" country="Lithuania" cc="LT" sponsor="Tele2" id="4660"  url2="http://vln038-speedtest-1b.tele2.net/mini/speedtest/upload.php" host="vln038-speedtest-1.tele2.net:8080" />
<server url="http://speedtest1.balt.net/speedtest/upload.php" lat="54.6833" lon="25.2833" name="Vilnius" country="Lithuania" cc="LT" sponsor="Baltneta" id="4219"  url2="http://speedtest2.balt.net/speedtest/upload.php" />
<server url="http://speedtest-01.cgates.lt/speedtest/upload.php" lat="54.6833" lon="25.2833" name="Vilnius" country="Lithuania" cc="LT" sponsor="UAB Cgates" id="3058"  url2="http://speedtest-02.cgates.lt/speedtest/upload.php" host="speedtest-01.cgates.lt:8080" />
<server url="http://speed-vilnius.zebra.lt/speedtest/upload.php" lat="54.6833" lon="25.2833" name="Vilnius" country="Lithuania" cc="LT" sponsor="TEO LT" id="1302"  host="speed-vilnius.zebra.lt:8080" />
<server url="http://speed3.plastcom.pl/speedtest/upload.php" lat="54.6167" lon="18.3500" name="Reda" country="Poland" cc="PL" sponsor="Plast-Com" id="4216"  url2="http://speed4.plastcom.pl/speedtest/upload.php" host="speed3.plastcom.pl:8080" />
<server url="http://speedtest.ryazan.u-disk.ru/speedtest/upload.php" lat="54.6167" lon="39.7333" name="Ryazan" country="Russian Federation" cc="RU" sponsor="Rostelecom" id="3479"  url2="http://speedtest2.ryazan.u-disk.ru/speedtest/upload.php" host="speedtest.ryazan.u-disk.ru:8080" />
<server url="http://speedtest1.ryazan.comstar-r.ru/speedtest/upload.php" lat="54.6167" lon="39.7333" name="Ryazan" country="Russian Federation" cc="RU" sponsor="MTS" id="1910"  url2="http://89.106.192.35/speedtest/upload.php" host="speedtest1.ryazan.comstar-r.ru:8080" />
<server url="http://speedtest.ryazan.ertelecom.ru/speedtest/upload.php" lat="54.6167" lon="39.7333" name="Ryazan" country="Russian Federation" cc="RU" sponsor="DOM.RU" id="2691"  url2="http://st.ryazan.ertelecom.ru/speedtest/upload.php" host="speedtest.ryazan.ertelecom.ru:8080" />
<server url="http://st1.tkchopin.pl/speedtest/upload.php" lat="54.6000" lon="18.2333" name="Wejherowo" country="Poland" cc="PL" sponsor="TK Chopin" id="2371"  url2="http://st2.tkchopin.pl/speedtest/upload.php" host="st1.tkchopin.pl:8080" />
<server url="http://speedtest.kosakowo.net/speedtest/upload.php" lat="54.5894" lon="18.4817" name="Kosakowo" country="Poland" cc="PL" sponsor="Pro-internet sp  z o o" id="3671"  host="speedtest.kosakowo.net:8080" />
<server url="http://speedtest1.interkar.pl/speedtest/upload.php" lat="54.5833" lon="18.4000" name="Rumia" country="Poland" cc="PL" sponsor="Interkar" id="3814"  url2="http://speedtest2.interkar.pl/speedtest/upload.php" host="speedtest1.interkar.pl:8080" />
<server url="http://test.tygrys.net/speedtest/upload.php" lat="54.5833" lon="18.4000" name="Rumia" country="Poland" cc="PL" sponsor="TYGRYS" id="3945"  url2="http://test22.tygrys.net/speedtest/upload.php" />
<server url="http://kaluga1.speedtest.corbina.net/speedtest/upload.php" lat="54.5333" lon="36.2667" name="Kaluga" country="Russia" cc="RU" sponsor="Beeline" id="4744"  url2="http://kaluga2.speedtest.corbina.net/speedtest/upload.php" host="kaluga1.speedtest.corbina.net:8080" />
<server url="http://speedtest.kaluga.u-disk.ru/speedtest/upload.php" lat="54.5333" lon="36.2667" name="Kaluga" country="Russian Federation" cc="RU" sponsor="Rostelecom" id="3521"  url2="http://speedtest2.kaluga.u-disk.ru/speedtest/upload.php" host="speedtest.kaluga.u-disk.ru:8080" />
<server url="http://speedtest.te.citywest.ca/speedtest/upload.php" lat="54.5165" lon="-128.5997" name="Terrace, BC" country="Canada" cc="CA" sponsor="CityWest Cable and Telephone" id="4443"  url2="http://speedtest.citywest.ca/speedtest/upload.php" host="speedtest.te.citywest.ca:8080" />
<server url="http://speedtest.maxnet.org.pl/speedtest/upload.php" lat="54.5000" lon="18.5500" name="Gdynia" country="Poland" cc="PL" sponsor="Maxnet" id="3574"  url2="http://speedtest.maxnet.net.pl/speedtest/upload.php" host="speedtest.maxnet.org.pl:8080" />
<server url="http://speedtest-uzn-eine.is74.ru/speedtest/upload.php" lat="54.4500" lon="61.2500" name="Yuzhnouralsk" country="Russia" cc="RU" sponsor="JSC Intersvyaz" id="4828"  url2="http://speedtest-uzn-zwei.is74.ru/speedtest/upload.php" host="speedtest-uzn-eine.is74.ru:8080" />
<server url="http://speedtest3.ktvb.ru/speedtest/upload.php" lat="54.4297" lon="86.4400" name="Inskoy" country="Russia" cc="RU" sponsor="KTV-Belovo" id="4809"  url2="http://speedtest4.ktvb.ru/speedtest/upload.php" />
<server url="http://speedtest1.ktvb.ru/speedtest/upload.php" lat="54.4167" lon="86.3000" name="Belovo" country="Russian Federation" cc="RU" sponsor="KTV-Belovo" id="3796"  host="speedtest1.ktvb.ru:8080" />
<server url="http://speedtest1.binz-kabel.de/speedtest/upload.php" lat="54.4000" lon="13.6000" name="Binz" country="Germany" cc="DE" sponsor="KABEL-TV-BINZ" id="3865"  url2="http://speedtest2.binz-kabel.de/speedtest/upload.php" />
<server url="http://speedtest-plast-eine.is74.ru/speedtest/upload.php" lat="54.3667" lon="60.8167" name="Plast" country="Russia" cc="RU" sponsor="JSC Intersvyaz" id="4834"  url2="http://speedtest-plast-zwei.is74.ru/speedtest/upload.php" host="speedtest-plast-eine.is74.ru:8080" />
<server url="http://speedtest.limes.com.pl/speedtest/upload.php" lat="54.3500" lon="18.6667" name="Gdansk" country="Poland" cc="PL" sponsor="Limes s.c." id="4627"  url2="http://speed-test.limes.com.pl/speedtest/upload.php" />
<server url="http://speedtestnet-pl.kubofonista.net/speedtest/upload.php" lat="54.3500" lon="18.6667" name="Gdansk" country="Poland" cc="PL" sponsor="Kubofonista Network" id="3775"  />
<server url="http://speedtest.biall.net.pl/speedtest/upload.php" lat="54.3500" lon="18.6667" name="Gdansk" country="Poland" cc="PL" sponsor="BIALL-NET Sp. z o.o." id="3412"  url2="http://speedtest.tx.pl/speedtest/upload.php" host="speedtest.biall.net.pl:8080" />
<server url="http://speedtest.net1.co.ni/speedtest/upload.aspx" lat="54.3450" lon="-7.6400" name="Enniskillen" country="Northern Ireland" cc="GB" sponsor="Net1 (NI) Ltd." id="3975"  url2="http://speedtest2.net1.co.ni/speedtest/upload.aspx" host="speedtest.net1.co.ni:8080" />
<server url="http://ookla1.speedtest.tng.de/speedtest/upload.php" lat="54.3253" lon="10.1406" name="Kiel" country="Germany" cc="DE" sponsor="TNG Stadtnetz GmbH" id="4556"  url2="http://ookla2.speedtest.tng.de/speedtest/upload.php" host="ookla1.speedtest.tng.de:8080" />
<server url="http://speedtest01.addix.net/speedtest/upload.php" lat="54.3253" lon="10.1406" name="Kiel" country="Germany" cc="DE" sponsor="ADDIX Internet Services GmbH" id="4617"  url2="http://speedtest02.addix.net/speedtest/upload.php" host="speedtest01.addix.net:8080" />
<server url="http://speedtest.ulsk.ertelecom.ru/speedtest/upload.php" lat="54.3249" lon="48.3852" name="Ulyanovsk" country="Russian Federation" cc="RU" sponsor="DOM.RU" id="2688"  url2="http://st.ulsk.ertelecom.ru/speedtest/upload.php" host="speedtest.ulsk.ertelecom.ru:8080" />
<server url="http://speedtest.ulyanovsk.u-disk.ru/speedtest/upload.php" lat="54.3167" lon="48.3667" name="Ulyanovsk" country="Russian Federation" cc="RU" sponsor="Rostelecom" id="4652"  url2="http://speedtest2.ulyanovsk.u-disk.ru/speedtest/upload.php" host="speedtest.ulyanovsk.u-disk.ru:8080" />
<server url="http://netgauge.citywest.ca/mini/speedtest/upload.php" lat="54.3122" lon="-130.3272" name="Prince Rupert, BC" country="Canada" cc="CA" sponsor="CityWest Cable and Tele" id="577"  url2="http://netgauge.pr.citywest.ca/mini/speedtest/upload.php" host="netgauge.citywest.ca:8080" />
<server url="http://speedtest.fastcom.ie/speedtest/upload.aspx" lat="54.2667" lon="-8.4833" name="Sligo" country="Ireland" cc="IE" sponsor="Fastcom" id="3647"  url2="http://speedtest1.fastcom.ie/speedtest/upload.aspx" host="speedtest.fastcom.ie:8080" />
<server url="http://speedtest.tula.u-disk.ru/speedtest/upload.php" lat="54.2000" lon="37.6167" name="Tula" country="Russian Federation" cc="RU" sponsor="Rostelecom" id="3266"  url2="http://speedtest2.tula.u-disk.ru/speedtest/upload.php" host="speedtest.tula.u-disk.ru:8080" />
<server url="http://speedtest.tula.ertelecom.ru/speedtest/upload.php" lat="54.2000" lon="37.6167" name="Tula" country="Russian Federation" cc="RU" sponsor="DOM.RU" id="2661"  url2="http://st.tula.ertelecom.ru/speedtest/upload.php" host="speedtest.tula.ertelecom.ru:8080" />
<server url="http://speedtest.tula.u-disk.ru/speedtest/upload.php" lat="54.2000" lon="37.6167" name="Tula" country="Russian Federation" cc="RU" sponsor="Rostelecom" id="3297"  url2="http://speedtest2.tula.u-disk.ru/speedtest/upload.php" host="speedtest.tula.u-disk.ru:8080" />
<server url="http://stpub1.sar.starttelecom.ru/speedtest/upload.php" lat="54.1833" lon="45.1833" name="Saransk" country="Russian Federation" cc="RU" sponsor="MTT.DOM" id="4298"  url2="http://stpub2.sar.starttelecom.ru/speedtest/upload.php" host="stpub1.sar.starttelecom.ru:8080" />
<server url="http://ktv-net.ru/speedtest/upload.php" lat="54.1833" lon="45.1833" name="Saransk" country="Russian Federation" cc="RU" sponsor="СJSC &quot;CONTACT-TV&quot;" id="4698"  url2="http://contact-tv.ru/speedtest/upload.php" host="ktv-net.ru:8080" />
<server url="http://speedtest.dartel.ru/upload.php" lat="54.1833" lon="45.1833" name="Saransk" country="Russian Federation" cc="RU" sponsor="DARTEL" id="2677"  url2="http://62.33.38.7/upload.php" host="speedtest.dartel.ru:8080" />
<server url="http://speedtest.saransk.u-disk.ru/speedtest/upload.php" lat="54.1833" lon="45.1833" name="Saransk" country="Russian Federation" cc="RU" sponsor="Rostelecom" id="4186"  url2="http://speedtest2.saransk.u-disk.ru/speedtest/upload.php" host="speedtest.saransk.u-disk.ru:8080" />
<server url="http://speedtest.e-mordovia.ru/speedtest/upload.php" lat="54.1833" lon="45.1833" name="Saransk" country="Russian Federation" cc="RU" sponsor="SUE РМ" id="3901"  url2="http://speed.e-mordovia.ru/speedtest/upload.php" host="speedtest.e-mordovia.ru:8080" />
<server url="http://speedtest.manx.net/speedtest/upload.php" lat="54.1675" lon="-4.4824" name="Douglas" country="Isle of Man" cc="IM" sponsor="Manx Telecom" id="3778"  host="speedtest.manx.net:8080" />
<server url="http://speedtest1.wimanx.com/speedtest/upload.php" lat="54.1675" lon="-4.4824" name="Douglas" country="Isle of Man" cc="IM" sponsor="Wi-Manx Limited" id="3183"  url2="http://speedtest2.wimanx.com/speedtest/upload.php" host="speedtest1.wimanx.com:8080" />
<server url="http://host1.speedtest.pwsz.elblag.pl/speedtest/upload.php" lat="54.1667" lon="19.4000" name="Elblag" country="Poland" cc="PL" sponsor="Panstwowa" id="3779"  host="host1.speedtest.pwsz.elblag.pl:8080" />
<server url="http://speedtest.lasnet.pl/speedtest/upload.php" lat="54.1167" lon="20.5833" name="Lidzbark Warminski" country="Poland" cc="PL" sponsor="Lasnet Usługi Komputerowe Robert Gulbinowicz" id="3760"  />
<server url="http://www.lannet.org/speed/speedtest/upload.php" lat="54.1000" lon="22.9333" name="Suwalki" country="Poland" cc="PL" sponsor="LanNet Suwałki" id="3689"  host="www.lannet.org:8080" />
<server url="http://speed2.sejnet.pl/speedtest/upload.php" lat="54.1000" lon="23.3500" name="Sejny" country="Poland" cc="PL" sponsor="Sejnet Rafał Sławiński" id="4395"  url2="http://speed1.sejnet.pl/speedtest/upload.php" host="speed2.sejnet.pl:8080" />
<server url="http://speedtest.swnnms.net/speedtest/upload.php" lat="54.0714" lon="9.9900" name="Neumuenster" country="Germany" cc="DE" sponsor="Stadtwerke Neumünster GmbH" id="4886"  host="185.12.88.10:8080" />
<server url="http://speedtest1.rgtsparus.ru/speedtest/upload.php" lat="54.0667" lon="44.9333" name="Ruzayevka" country="Russian Federation" cc="RU" sponsor="OOO RGTS &quot;Parus&quot;" id="2744"  url2="http://speedtest2.rgtsparus.ru/speedtest/upload.php" host="speedtest1.rgtsparus.ru:8080" />
<server url="http://84.19.126.16/speedtest/upload.php" lat="54.0640" lon="-2.8786" name="Morecambe" country="Great Britain" cc="GB" sponsor="Smallworld Media" id="1518"  />
<server url="http://speedtest.net1.ie/speedtest/upload.php" lat="54.0070" lon="-6.4049" name="Dundalk" country="Ireland" cc="IE" sponsor="Adelphi Net1 Ltd" id="1459"  host="speedtest.net1.ie:8080" />
<server url="http://speedtest.bytemark.co.uk/speedtest/upload.php" lat="53.9583" lon="-1.0803" name="York" country="Great Britain" cc="GB" sponsor="Bytemark Hosting" id="4068"  url2="http://speedtest.dh.bytemark.co.uk/speedtest/upload.php" host="speedtest.bytemark.co.uk:8080" />
<server url="http://speed.roslavl-sp.ru/speedtest/upload.php" lat="53.9528" lon="32.8639" name="Roslavl" country="Russian Federation" cc="RU" sponsor="Server-plus" id="3181"  url2="http://speed1.roslavl-sp.ru/speedtest/upload.php" host="speed.roslavl-sp.ru:8080" />
<server url="http://speedtest.uznam.net.pl/speedtest/upload.php" lat="53.9091" lon="14.2400" name="Swinoujscie" country="Poland" cc="PL" sponsor="AC Systemy Komputerowe" id="2950"  url2="http://speedtest.acsystemy.pl/speedtest/upload.php" host="speedtest.uznam.net.pl:8080" />
<server url="http://speedtest.infonet.by/speedtest/upload.php" lat="53.9000" lon="27.5667" name="Minsk" country="Belarus" cc="BY" sponsor="Belinfonet Ltd" id="3777"  host="speedtest.infonet.by:8080" />
<server url="http://speedtest1.unet.by/speedtest/upload.php" lat="53.9000" lon="27.5667" name="Minsk" country="Belarus" cc="BY" sponsor="UNET.BY" id="3704"  host="speedtest1.unet.by:8080" />
<server url="http://test.byfly.by/speedtest/upload.php" lat="53.9000" lon="27.5667" name="Minsk" country="Belarus" cc="BY" sponsor="BYFLY" id="4426"  url2="http://test2.byfly.by/speedtest/upload.php" host="test.byfly.by:8080" />
<server url="http://speedtest1.mts.by/speedtest/upload.php" lat="53.9000" lon="27.5667" name="Minsk" country="Belarus" cc="BY" sponsor="Mobile TeleSystems JLLC" id="4268"  url2="http://speedtest2.mts.by/speedtest/upload.php" host="speedtest1.mts.by:8080" />
<server url="http://test.byfly.by/speedtest/upload.php" lat="53.9000" lon="27.5667" name="Minsk" country="Belarus" cc="BY" sponsor="MGTS" id="1119"  url2="http://86.57.151.26/speedtest/upload.php" host="test.byfly.by:8080" />
<server url="http://speedtest1.velcom.by/speedtest/upload.php" lat="53.9000" lon="27.5667" name="Minsk" country="Belarus" cc="BY" sponsor="FE VELCOM" id="4521"  url2="http://speedtest2.velcom.by/speedtest/upload.php" host="speedtest1.velcom.by:8080" />
<server url="http://media.bn.by/test/speedtest/upload.php" lat="53.9000" lon="27.5667" name="Minsk" country="Belarus" cc="BY" sponsor="Business Network, Ltd. JV" id="4716"  url2="http://212.98.160.190/test/speedtest/upload.php" host="media.bn.by:8080" />
<server url="http://test.flynet.by/speedtest/upload.php" lat="53.9000" lon="27.5667" name="Minsk" country="Belarus" cc="BY" sponsor="FLYNET.BY" id="3326"  url2="http://test2.flynet.by/speedtest/upload.php" host="test.flynet.by:8080" />
<server url="http://speedtest1.air-net.gda.pl/speedtest/upload.php" lat="53.8500" lon="18.0167" name="Przyjazn" country="Poland" cc="PL" sponsor="AIR-NET Sp. z o.o." id="4120"  url2="http://speedtest2.air-net.gda.pl/speedtest/upload.php" host="speedtest1.air-net.gda.pl:8080" />
<server url="http://speedtest.csb-net.de/speedtest/upload.php" lat="53.8167" lon="10.3667" name="Bad Oldesloe" country="Germany" cc="DE" sponsor="C&amp;S Breitband GmbH" id="3537"  url2="http://speedtest.vsm.sh/speedtest/upload.php" host="speedtest.csb-net.de:8080" />
<server url="http://speedtest.blakeway.me.uk/speedtest/upload.aspx" lat="53.8100" lon="-1.5500" name="Leeds" country="Great Britain" cc="GB" sponsor="Webfusion" id="3519"  url2="http://speedtest.haptech.co.uk/speedtest/upload.aspx" host="speedtest.blakeway.me.uk:8080" />
<server url="http://leeds-uk-speed1.firstnetserv.co.uk/speedtest/upload.php" lat="53.8100" lon="-1.5500" name="Leeds" country="Great Britain" cc="GB" sponsor="Black Fibre Networks Ltd" id="2363"  url2="http://leeds-uk-speed2.firstnetserv.co.uk/speedtest/upload.php" host="leeds-uk-speed1.firstnetserv.co.uk:8080" />
<server url="http://185.15.133.201/test2/speedtest/upload" lat="53.8003" lon="17.2531" name="Przechlewo" country="Poland" cc="PL" sponsor="PHU BARNET" id="4121"  url2="http://185.15.133.201/test3/speedtest/upload.php" />
<server url="http://st-kamen.dianet.ru/speedtest/upload.php" lat="53.7919" lon="81.3486" name="Kamen-na-Obi" country="Russia" cc="RU" sponsor="Dianet" id="4950"  url2="http://st-kamen.dianet.info/speedtest/upload.php" host="st-kamen.dianet.ru:8080" />
<server url="http://speedtest.boundlessbroadband.net/speedtest/upload.php" lat="53.7590" lon="-2.6990" name="Preston" country="Great Britain" cc="GB" sponsor="Boundless Comms" id="2262"  url2="http://speedtest2.boundlessbroadband.net/speedtest/upload.php" />
<server url="http://speed-nkz.myttk.ru/speedtest/upload.php" lat="53.7500" lon="87.1000" name="Novokuznetsk" country="Russian Federation" cc="RU" sponsor="JSC Zap-Sib TransTeleCom" id="1831"  host="speed-nkz.myttk.ru:8080" />
<server url="http://speedtest.novokuznetsk.u-disk.ru/speedtest/upload.php" lat="53.7500" lon="87.1167" name="Novokuznetsk" country="Russian Federation" cc="RU" sponsor="Rostelecom" id="4284"  url2="http://speedtest2.novokuznetsk.u-disk.ru/speedtest/upload.php" host="speedtest.novokuznetsk.u-disk.ru:8080" />
<server url="http://www.speedtest.karoo.co.uk/speedtest/upload.php" lat="53.7443" lon="-0.3325" name="Kingston Upon Hull" country="Great Britain" cc="GB" sponsor="Kingston Communications" id="1426"  host="fibretest.kc.kcom.com:8080" />
<server url="http://37.152.41.13/speedtest/upload.php" lat="53.7443" lon="0.3325" name="Kingston upon Hull" country="Great Britain" cc="GB" sponsor="Purebroadband Limited" id="4258"  url2="http://37.152.41.14/speedtest/upload.php" host="37.152.41.13:8080" />
<server url="http://speedtest.abakannet.ru/speedtest/upload.php" lat="53.7167" lon="91.4167" name="Abakan" country="Russian Federation" cc="RU" sponsor="OOO &quot;Set&quot; (abakannet.ru)" id="3897"  url2="http://speedtest2.abakannet.ru/speedtest/upload.php" />
<server url="http://wsteam.ru/speedtest/upload.php" lat="53.7167" lon="91.4167" name="Abakan" country="Russian Federation" cc="RU" sponsor="Whistlers Team" id="4334"  host="wsteam.ru:8080" />
<server url="http://speedtest.abakan.u-disk.ru/speedtest/upload.php" lat="53.7167" lon="91.4167" name="Abakan" country="Russia" cc="RU" sponsor="Rostelecom" id="4479"  url2="http://speedtest2.abakan.u-disk.ru/speedtest/upload.php" host="speedtest.abakan.u-disk.ru:8080" />
<server url="http://speedtest.alfatelplus.ru/speedtest/upload.php" lat="53.7167" lon="91.4167" name="Abakan" country="Russian Federation" cc="RU" sponsor="OOO Alfatel plus" id="4366"  url2="http://speedtest2.alfatelplus.ru/speedtest/upload.php" host="speedtest.alfatelplus.ru:8080" />
<server url="http://speedtest.intertelecom.org/speedtest/upload.php" lat="53.7167" lon="91.4167" name="Abakan" country="Russia" cc="RU" sponsor="Intertelecom" id="4758"  url2="http://speedtest1.intertelecom.org/speedtest/upload.php" host="speedtest.intertelecom.org:8080" />
<server url="http://st-zarinsk.dianet.info/speedtest/upload.php" lat="53.7089" lon="84.9672" name="Zarinsk" country="Russian Federation" cc="RU" sponsor="Dianet" id="1535"  host="st-zarinsk.dianet.info:8080" />
<server url="http://speedtest.wtnet.de/speedtest/upload.php" lat="53.7064" lon="10.0103" name="Norderstedt" country="Germany" cc="DE" sponsor="wilhelm.tel" id="4087"  url2="http://pingtest.wtnet.de/speedtest/upload.php" host="speedtest.wtnet.de:8080" />
<server url="http://speed1.chojnet.pl/speedtest/upload.php" lat="53.7000" lon="17.5500" name="Chojnice" country="Poland" cc="PL" sponsor="Chojnet" id="3618"  url2="http://speed2.chojnet.pl/speedtest/upload.php" host="speed1.chojnet.pl:8080" />
<server url="http://bscnetwork.net/speedtest/speedtest/upload.php" lat="53.6454" lon="-3.0083" name="Southport" country="Great Britain" cc="GB" sponsor="Blue Sky Network Ltd" id="4127"  host="bscnetwork.net:8080" />
<server url="http://sl-02.wemacom.de/speedtest/upload.php" lat="53.6333" lon="11.4167" name="Schwerin" country="Germany" cc="DE" sponsor="WEMACOM Telekommunikation" id="4314"  url2="http://mvtel.de/speedtest/upload.php" host="sl-02.wemacom.de:8080" />
<server url="http://speedtest.it-gemini.pl/mini/speedtest/upload.php" lat="53.6167" lon="21.8000" name="Pisz" country="Poland" cc="PL" sponsor="IT-Gemini" id="4965"  url2="http://speedtest2.it-gemini.pl/mini/speedtest/upload.php" host="speedtest.it-gemini.pl:8080" />
<server url="http://speedtest.m-networks.pl/speedtest/upload.php" lat="53.6000" lon="17.8500" name="Tuchola" country="Poland" cc="PL" sponsor="M-Networks Sp. z o.o." id="4083"  url2="http://test1.my-yo.ru/speedtest/upload.php" />
<server url="http://speedtest.studiofunk.de/speedtest/upload.php" lat="53.5653" lon="10.0014" name="Hamburg" country="Germany" cc="DE" sponsor="Studio Funk GmbH &amp; Co. KG" id="2398"  url2="http://speedtest2.studiofunk.de/speedtest/upload.php" host="speedtest.studiofunk.de:8080" />
<server url="http://edmonton.speedtest.telus.com/speedtest/upload.jsp" lat="53.5472" lon="-113.5006" name="Edmonton, AB" country="Canada" cc="CA" sponsor="Telus" id="3050"  host="edmonton.speedtest.telus.com:8080" />
<server url="http://speedtest.tera-byte.com/speedtest/upload.php" lat="53.5472" lon="-113.5006" name="Edmonton, AB" country="Canada" cc="CA" sponsor="Tera-byte Dot Com Inc" id="1051"  url2="http://216.234.191.173/speedtest/upload.php" host="speedtest.tera-byte.com:8080" />
<server url="http://speedtest.ed.shawcable.net/speedtest/upload.php" lat="53.5472" lon="-113.5006" name="Edmonton, AB" country="Canada" cc="CA" sponsor="Shaw Communications" id="4242"  url2="http://speedtest2.ed.shawcable.net/speedtest/upload.php" host="speedtest.ed.shawcable.net:8080" />
<server url="http://speedtest.tlt.100megabit.ru/speedtest/upload.php" lat="53.4833" lon="49.5167" name="Tolyatti" country="Russian Federation" cc="RU" sponsor="AIST" id="3604"  url2="http://speedtest.tlt.aist.net.ru/speedtest/upload.php" />
<server url="http://speedtest.totel.ru/speedtest/upload.php" lat="53.4833" lon="49.5167" name="Tolyatti" country="Russian Federation" cc="RU" sponsor="Togliatti Telecom" id="4271"  url2="http://speedtest-2.totel.ru/speedtest/upload.php" host="speedtest.totel.ru:8080" />
<server url="http://speed.aido.ru/speedtest/upload.php" lat="53.4833" lon="49.5167" name="Tolyatti" country="Russian Federation" cc="RU" sponsor="Aido Telecom" id="3621"  url2="http://speed2.aido.ru/speedtest/upload.php" host="speed.aido.ru:8080" />
<server url="http://manc-speedtest-1.server.virginmedia.net/speedtest/upload.php" lat="53.4800" lon="-2.2400" name="Manchester" country="Great Britain" cc="GB" sponsor="Virgin Media" id="3448"  host="manc-speedtest-1.server.virginmedia.net:8080" />
<server url="http://speedtest.tnp.net.uk/speedtest/upload.php" lat="53.4800" lon="-2.2400" name="Manchester" country="Great Britain" cc="GB" sponsor="TNP Ltd." id="3504"  url2="http://speedtest2.tnp.net.uk/speedtest/upload.php" host="speedtest.tnp.net.uk:8080" />
<server url="http://bagu-speedtest-1.server.virginmedia.net/speedtest/upload.php" lat="53.4754" lon="-2.2470" name="Baguley" country="Great Britain" cc="GB" sponsor="Virgin Media" id="3732"  host="bagu-speedtest-1.server.virginmedia.net:8080" />
<server url="http://speedtest1.magnitogorsk.multinex.ru/speedtest/upload.php" lat="53.4609" lon="59.0831" name="Magnitogorsk" country="Russian Federation" cc="RU" sponsor="MTS" id="1892"  />
<server url="http://speedtest.mgn.ertelecom.ru/speedtest/upload.php" lat="53.4609" lon="59.0831" name="Magnitogorsk" country="Russian Federation" cc="RU" sponsor="DOM.RU" id="2699"  url2="http://st.mgn.ertelecom.ru/speedtest/upload.php" host="speedtest.mgn.ertelecom.ru:8080" />
<server url="http://speedtest.mgn.ru/speedtest/upload.php" lat="53.4609" lon="59.0831" name="Magnitogorsk" country="Russian Federation" cc="RU" sponsor="Maginfo" id="2037"  url2="http://st.mgn.ru/speedtest/upload.php" host="speedtest.mgn.ru:8080" />
<server url="http://speedtest-magnitogorsk-eine.is74.ru/speedtest/upload.php" lat="53.4609" lon="59.0831" name="Magnitogorsk" country="Russian Federation" cc="RU" sponsor="JSC Intersvyaz" id="2721"  url2="http://speedtest-magnitogorsk-zwei.is74.ru/speedtest/upload.php" host="speedtest-magnitogorsk-eine.is74.ru:8080" />
<server url="http://speedtest.vspace.pl/speedtest/upload.php" lat="53.4333" lon="14.5333" name="Szczecin" country="Poland" cc="PL" sponsor="Virtual Space" id="4410"  url2="http://speedtest.pogodno.net/speedtest/upload.php" />
<server url="http://st1.ltnt.pl/speedtest/upload.php" lat="53.4167" lon="14.5833" name="Szczecin" country="Poland" cc="PL" sponsor="LanTech Networks" id="4644"  url2="http://st2.ltnt.pl/speedtest/upload.php" />
<server url="http://speedtest-livpola1.firstnetserv.co.uk/speedtest/upload.php" lat="53.4000" lon="-3.0000" name="Liverpool" country="Great Britain" cc="GB" sponsor="Black Fibre Networks Ltd" id="2362"  url2="http://speedtest-livpola2.firstnetserv.co.uk/speedtest/upload.php" host="speedtest-livpola1.firstnetserv.co.uk:8080" />
<server url="http://speedtest.net-komp.net.pl/speedtest/upload.php" lat="53.4000" lon="21.9333" name="Kolno" country="Poland" cc="PL" sponsor="NET-KOMP" id="2568"  url2="http://speedtest2.net-komp.net.pl/speedtest/upload.php" host="speedtest.net-komp.net.pl:8080" />
<server url="http://sta.idealan.pl/speedtest/upload.php" lat="53.4000" lon="23.5000" name="Sokolka" country="Poland" cc="PL" sponsor="IdeaLAN" id="3424"  url2="http://stb.idealan.pl/speedtest/upload.php" />
<server url="http://st.dianet.info/speedtest/upload.php" lat="53.3579" lon="83.7594" name="Barnaul" country="Russian Federation" cc="RU" sponsor="Dianet" id="1550"  url2="http://st-barnaul.dianet.info/speedtest/upload.php" host="st.dianet.info:8080" />
<server url="http://speedtest.barnaul.ertelecom.ru/speedtest/upload.php" lat="53.3579" lon="83.7594" name="Barnaul" country="Russian Federation" cc="RU" sponsor="DOM.RU" id="2730"  url2="http://st.barnaul.ertelecom.ru/speedtest/upload.php" host="speedtest.barnaul.ertelecom.ru:8080" />
<server url="http://speedtest.barnaul.u-disk.ru/speedtest/upload.php" lat="53.3579" lon="83.7594" name="Barnaul" country="Russian Federation" cc="RU" sponsor="Rostelecom" id="3552"  url2="http://speedtest2.barnaul.u-disk.ru/speedtest/upload.php" host="speedtest.barnaul.u-disk.ru:8080" />
